Systime: 1411812789.99451
GPSD,O=?,R=1

--------
Systime: 1411812790.88597
$GPGGA,101317.000,4110.1592,N,00835.8452,W,1,05,1.7,166.4,M,51.3,M,,0000*44
$GPGSA,A,3,16,21,31,18,27,,,,,,,,3.4,1.7,2.9*32
$GPRMC,101317.000,A,4110.1592,N,00835.8452,W,0.00,183.86,270914,,,A*7A
GPSD,O=RMC 1411812797.00 0.005 41.169320 -8.597420          ?        ?        ? 183.8600    0.000          ?             ?        ?        ?        ?,R=1

--------
Systime: 1411812792.84597
$GPGGA,101318.000,4110.1592,N,00835.8452,W,1,05,1.7,166.4,M,51.3,M,,0000*4B
$GPGSA,A,3,16,21,31,18,27,,,,,,,,3.4,1.7,2.9*32
$GPGSV,3,1,12,21,64,085,43,16,55,317,37,08,52,273,,27,37,268,41*74
$GPGSV,3,2,12,25,35,207,,31,32,188,47,15,31,049,,02,28,047,*7E
$GPGSV,3,3,12,29,17,064,25,18,16,122,38,10,14,071,,01,10,284,*7A
$GPRMC,101318.000,A,4110.1592,N,00835.8452,W,0.00,183.86,270914,,,A*75
GPSD,O=RMC 1411812798.00 0.005 41.169320 -8.597420          ?        ?        ? 183.8600    0.000          ?             ?        ?        ?        ?,R=1
$GPGGA,101319.000,4110.1592,N,00835.8452,W,1,05,1.7,166.4,M,51.3,M,,0000*4A
$GPGSA,A,3,16,21,31,18,27,,,,,,,,3.4,1.7,2.9*32
$GPRMC,101319.000,A,4110.1592,N,00835.8452,W,0.00,183.86,270914,,,A*74

--------
Systime: 1411812793.90549
$GPGGA,101320.000,4110.1592,N,00835.8452,W,1,05,1.7,166.4,M,51.3,M,,0000*40
$GPGSA,A,3,16,21,31,18,27,,,,,,,,3.4,1.7,2.9*32
$GPRMC,101320.000,A,4110.1592,N,00835.8452,W,0.00,183.86,270914,,,A*7E
GPSD,O=RMC 1411812800.00 0.005 41.169320 -8.597420          ?        ?        ? 183.8600    0.000          ?             ?        ?        ?        ?,R=1

--------
Systime: 1411812794.88721
$GPGGA,101321.000,4110.1592,N,00835.8452,W,1,05,1.7,166.4,M,51.3,M,,0000*41
$GPGSA,A,3,16,21,31,18,27,,,,,,,,3.4,1.7,2.9*32
$GPRMC,101321.000,A,4110.1592,N,00835.8452,W,0.00,183.86,270914,,,A*7F
GPSD,O=RMC 1411812801.00 0.005 41.169320 -8.597420          ?        ?        ? 183.8600    0.000          ?             ?        ?        ?        ?,R=1

--------
Systime: 1411812795.88742
$GPGGA,101322.000,4110.1592,N,00835.8452,W,1,05,1.7,166.4,M,51.3,M,,0000*42
$GPGSA,A,3,16,21,31,18,27,,,,,,,,3.4,1.7,2.9*32
$GPRMC,101322.000,A,4110.1592,N,00835.8452,W,0.00,183.86,270914,,,A*7C
GPSD,O=RMC 1411812802.00 0.005 41.169320 -8.597420          ?        ?        ? 183.8600    0.000          ?             ?        ?        ?        ?,R=1

--------
Systime: 1411812797.83596
$GPGGA,101323.000,4110.1592,N,00835.8452,W,1,05,1.7,166.4,M,51.3,M,,0000*43
$GPGSA,A,3,16,21,31,18,27,,,,,,,,3.4,1.7,2.9*32
$GPGSV,3,1,12,21,64,085,43,16,55,317,38,08,52,273,,27,37,268,41*7B
$GPGSV,3,2,12,25,35,207,,31,32,188,47,15,31,049,,02,28,047,*7E
$GPGSV,3,3,12,29,17,064,26,18,16,122,38,10,14,071,,01,10,284,*79
$GPRMC,101323.000,A,4110.1592,N,00835.8452,W,0.00,183.86,270914,,,A*7D
GPSD,O=RMC 1411812803.00 0.005 41.169320 -8.597420          ?        ?        ? 183.8600    0.000          ?             ?        ?        ?        ?,R=1
$GPGGA,101324.000,4110.1592,N,00835.8452,W,1,05,1.7,166.4,M,51.3,M,,0000*44
$GPGSA,A,3,16,21,31,18,27,,,,,,,,3.4,1.7,2.9*32
$GPRMC,101324.000,A,4110.1592,N,00835.8452,W,0.00,183.86,270914,,,A*7A

--------
Systime: 1411812798.86839
$GPGGA,101325.000,4110.1592,N,00835.8452,W,1,05,1.7,166.4,M,51.3,M,,0000*45
$GPGSA,A,3,16,21,31,18,27,,,,,,,,3.4,1.7,2.9*32
$GPRMC,101325.000,A,4110.1592,N,00835.8452,W,0.00,183.86,270914,,,A*7B
GPSD,O=RMC 1411812805.00 0.005 41.169320 -8.597420          ?        ?        ? 183.8600    0.000          ?             ?        ?        ?        ?,R=1

--------
Systime: 1411812799.88164
$GPGGA,101326.000,4110.1592,N,00835.8452,W,1,05,1.7,166.4,M,51.3,M,,0000*46
$GPGSA,A,3,16,21,31,18,27,,,,,,,,3.4,1.7,2.9*32
$GPRMC,101326.000,A,4110.1592,N,00835.8452,W,0.00,183.86,270914,,,A*78
GPSD,O=RMC 1411812806.00 0.005 41.169320 -8.597420          ?        ?        ? 183.8600    0.000          ?             ?        ?        ?        ?,R=1

--------
Systime: 1411812800.88989
$GPGGA,101327.000,4110.1592,N,00835.8452,W,1,05,1.7,166.4,M,51.3,M,,0000*47
$GPGSA,A,3,16,21,31,18,27,,,,,,,,3.4,1.7,2.9*32
$GPRMC,101327.000,A,4110.1592,N,00835.8452,W,0.00,183.86,270914,,,A*79
GPSD,O=RMC 1411812807.00 0.005 41.169320 -8.597420          ?        ?        ? 183.8600    0.000          ?             ?        ?        ?        ?,R=1

--------
Systime: 1411812802.85918
$GPGGA,101328.000,4110.1592,N,00835.8452,W,1,05,1.7,166.4,M,51.3,M,,0000*48
$GPGSA,A,3,16,21,31,18,27,,,,,,,,3.4,1.7,2.9*32
$GPGSV,3,1,12,21,64,085,43,16,55,317,38,08,52,273,,27,37,268,41*7B
$GPGSV,3,2,12,25,35,207,,31,32,188,47,15,31,049,,02,28,047,*7E
$GPGSV,3,3,12,29,17,064,26,18,16,122,37,10,14,071,,01,10,284,*76
$GPRMC,101328.000,A,4110.1592,N,00835.8452,W,0.00,183.86,270914,,,A*76
GPSD,O=RMC 1411812808.00 0.005 41.169320 -8.597420          ?        ?        ? 183.8600    0.000          ?             ?        ?        ?        ?,R=1
$GPGGA,101329.000,4110.1592,N,00835.8452,W,1,05,1.7,166.4,M,51.3,M,,0000*49
$GPGSA,A,3,16,21,31,18,27,,,,,,,,3.4,1.7,2.9*32
$GPRMC,101329.000,A,4110.1592,N,00835.8452,W,0.00,183.86,270914,,,A*77

--------
Systime: 1411812803.88391
$GPGGA,101330.000,4110.1592,N,00835.8452,W,1,05,1.7,166.4,M,51.3,M,,0000*41
$GPGSA,A,3,16,21,31,18,27,,,,,,,,3.4,1.7,2.9*32
$GPRMC,101330.000,A,4110.1592,N,00835.8452,W,0.00,183.86,270914,,,A*7F
GPSD,O=RMC 1411812810.00 0.005 41.169320 -8.597420          ?        ?        ? 183.8600    0.000          ?             ?        ?        ?        ?,R=1

--------
Systime: 1411812804.87527
$GPGGA,101331.000,4110.1592,N,00835.8452,W,1,05,1.7,166.4,M,51.3,M,,0000*40
$GPGSA,A,3,16,21,31,18,27,,,,,,,,3.4,1.7,2.9*32
$GPRMC,101331.000,A,4110.1592,N,00835.8452,W,0.00,183.86,270914,,,A*7E
GPSD,O=RMC 1411812811.00 0.005 41.169320 -8.597420          ?        ?        ? 183.8600    0.000          ?             ?        ?        ?        ?,R=1

--------
Systime: 1411812805.90497
$GPGGA,101332.000,4110.1592,N,00835.8452,W,1,05,1.7,166.4,M,51.3,M,,0000*43
$GPGSA,A,3,16,21,31,18,27,,,,,,,,3.4,1.7,2.9*32
$GPRMC,101332.000,A,4110.1592,N,00835.8452,W,0.00,183.86,270914,,,A*7D
GPSD,O=RMC 1411812812.00 0.005 41.169320 -8.597420          ?        ?        ? 183.8600    0.000          ?             ?        ?        ?        ?,R=1

--------
Systime: 1411812807.84274
$GPGGA,101333.000,4110.1592,N,00835.8452,W,1,05,1.7,166.4,M,51.3,M,,0000*42
$GPGSA,A,3,16,21,31,18,27,,,,,,,,3.4,1.7,2.9*32
$GPGSV,3,1,12,21,64,085,43,16,55,317,39,08,52,273,,27,37,268,41*7A
$GPGSV,3,2,12,25,35,207,,31,32,188,47,15,31,049,,02,28,047,*7E
$GPGSV,3,3,12,29,17,064,27,18,16,122,37,10,14,071,,01,10,284,*77
$GPRMC,101333.000,A,4110.1592,N,00835.8452,W,0.00,183.86,270914,,,A*7C
GPSD,O=RMC 1411812813.00 0.005 41.169320 -8.597420          ?        ?        ? 183.8600    0.000          ?             ?        ?        ?        ?,R=1
$GPGGA,101334.000,4110.1592,N,00835.8452,W,1,05,1.7,166.4,M,51.3,M,,0000*45
$GPGSA,A,3,16,21,31,18,27,,,,,,,,3.4,1.7,2.9*32
$GPRMC,101334.000,A,4110.1592,N,00835.8452,W,0.00,183.86,270914,,,A*7B

--------
Systime: 1411812808.86404
$GPGGA,101335.000,4110.1592,N,00835.8452,W,1,05,1.7,166.4,M,51.3,M,,0000*44
$GPGSA,A,3,16,21,31,18,27,,,,,,,,3.4,1.7,2.9*32
$GPRMC,101335.000,A,4110.1592,N,00835.8452,W,0.00,183.86,270914,,,A*7A
GPSD,O=RMC 1411812815.00 0.005 41.169320 -8.597420          ?        ?        ? 183.8600    0.000          ?             ?        ?        ?        ?,R=1

--------
Systime: 1411812809.89577
$GPGGA,101336.000,4110.1592,N,00835.8452,W,1,05,1.7,166.4,M,51.3,M,,0000*47
$GPGSA,A,3,16,21,31,18,27,,,,,,,,3.4,1.7,2.9*32
$GPRMC,101336.000,A,4110.1592,N,00835.8452,W,0.00,183.86,270914,,,A*79
GPSD,O=RMC 1411812816.00 0.005 41.169320 -8.597420          ?        ?        ? 183.8600    0.000          ?             ?        ?        ?        ?,R=1

--------
Systime: 1411812810.86613
$GPGGA,101337.000,4110.1592,N,00835.8452,W,1,05,1.7,166.4,M,51.3,M,,0000*46
$GPGSA,A,3,16,21,31,18,27,,,,,,,,3.4,1.7,2.9*32
$GPRMC,101337.000,A,4110.1592,N,00835.8452,W,0.00,183.86,270914,,,A*78
GPSD,O=RMC 1411812817.00 0.005 41.169320 -8.597420          ?        ?        ? 183.8600    0.000          ?             ?        ?        ?        ?,R=1

--------
Systime: 1411812812.84883
$GPGGA,101338.000,4110.1592,N,00835.8452,W,1,05,1.7,166.4,M,51.3,M,,0000*49
$GPGSA,A,3,16,21,31,18,27,,,,,,,,3.4,1.7,2.9*32
$GPGSV,3,1,12,21,64,085,43,16,55,317,39,08,52,273,,27,37,268,41*7A
$GPGSV,3,2,12,25,35,207,,31,32,188,47,15,31,049,,02,28,047,*7E
$GPGSV,3,3,12,29,17,064,28,18,16,122,36,10,14,071,,01,10,284,*79
$GPRMC,101338.000,A,4110.1592,N,00835.8452,W,0.00,183.86,270914,,,A*77
GPSD,O=RMC 1411812818.00 0.005 41.169320 -8.597420          ?        ?        ? 183.8600    0.000          ?             ?        ?        ?        ?,R=1
$GPGGA,101339.000,4110.1592,N,00835.8452,W,1,05,1.7,166.4,M,51.3,M,,0000*48
$GPGSA,A,3,16,21,31,18,27,,,,,,,,3.4,1.7,2.9*32
$GPRMC,101339.000,A,4110.1592,N,00835.8452,W,0.00,183.86,270914,,,A*76

--------
Systime: 1411812813.88005
$GPGGA,101340.000,4110.1592,N,00835.8452,W,1,05,1.7,166.4,M,51.3,M,,0000*46
$GPGSA,A,3,16,21,31,18,27,,,,,,,,3.4,1.7,2.9*32
$GPRMC,101340.000,A,4110.1592,N,00835.8452,W,0.00,183.86,270914,,,A*78
GPSD,O=RMC 1411812820.00 0.005 41.169320 -8.597420          ?        ?        ? 183.8600    0.000          ?             ?        ?        ?        ?,R=1

--------
Systime: 1411812814.92168
$GPGGA,101341.000,4110.1592,N,00835.8452,W,1,05,1.7,166.4,M,51.3,M,,0000*47
$GPGSA,A,3,16,21,31,18,27,,,,,,,,3.4,1.7,2.9*32
$GPRMC,101341.000,A,4110.1592,N,00835.8452,W,0.00,183.86,270914,,,A*79
GPSD,O=RMC 1411812821.00 0.005 41.169320 -8.597420          ?        ?        ? 183.8600    0.000          ?             ?        ?        ?        ?,R=1

--------
Systime: 1411812815.89492
$GPGGA,101342.000,4110.1592,N,00835.8452,W,1,05,1.7,166.4,M,51.3,M,,0000*44
$GPGSA,A,3,16,21,31,18,27,,,,,,,,3.4,1.7,2.9*32
$GPRMC,101342.000,A,4110.1592,N,00835.8452,W,0.00,183.86,270914,,,A*7A
GPSD,O=RMC 1411812822.00 0.005 41.169320 -8.597420          ?        ?        ? 183.8600    0.000          ?             ?        ?        ?        ?,R=1

--------
Systime: 1411812817.8138
$GPGGA,101343.000,4110.1592,N,00835.8452,W,1,05,1.7,166.4,M,51.3,M,,0000*45
$GPGSA,A,3,16,21,31,18,27,,,,,,,,3.4,1.7,2.9*32
$GPGSV,3,1,12,21,64,085,43,16,55,317,39,08,52,273,,27,37,268,41*7A
$GPGSV,3,2,12,25,35,207,,31,31,188,47,15,31,048,,02,27,047,*73
$GPGSV,3,3,12,29,17,064,28,18,16,122,36,10,14,071,,01,10,284,*79
$GPRMC,101343.000,A,4110.1592,N,00835.8452,W,0.00,183.86,270914,,,A*7B
GPSD,O=RMC 1411812823.00 0.005 41.169320 -8.597420          ?        ?        ? 183.8600    0.000          ?             ?        ?        ?        ?,R=1
$GPGGA,101344.000,4110.1592,N,00835.8452,W,1,05,1.7,166.4,M,51.3,M,,0000*42
$GPGSA,A,3,16,21,31,18,27,,,,,,,,3.4,1.7,2.9*32
$GPRMC,101344.000,A,4110.1592,N,00835.8452,W,0.00,183.86,270914,,,A*7C

--------
Systime: 1411812818.83794
GPSD,O=RMC 1411812824.00 0.005 41.169320 -8.597420          ?        ?        ? 183.8600    0.000          ?             ?        ?        ?        ?,R=1
$GPGGA,101345.000,4110.1592,N,00835.8452,W,1,05,1.7,166.4,M,51.3,M,,0000*43
$GPGSA,A,3,16,21,31,18,27,,,,,,,,3.4,1.7,2.9*32
$GPRMC,101345.000,A,4110.1592,N,00835.8452,W,0.00,183.86,270914,,,A*7D

--------
Systime: 1411812819.87508
$GPGGA,101346.000,4110.1592,N,00835.8452,W,1,05,1.7,166.4,M,51.3,M,,0000*40
$GPGSA,A,3,16,21,31,18,27,,,,,,,,3.4,1.7,2.9*32
$GPRMC,101346.000,A,4110.1592,N,00835.8452,W,0.00,183.86,270914,,,A*7E
GPSD,O=RMC 1411812826.00 0.005 41.169320 -8.597420          ?        ?        ? 183.8600    0.000          ?             ?        ?        ?        ?,R=1

--------
Systime: 1411812820.86573
$GPGGA,101347.000,4110.1592,N,00835.8452,W,1,05,1.7,166.4,M,51.3,M,,0000*41
$GPGSA,A,3,16,21,31,18,27,,,,,,,,3.4,1.7,2.9*32
$GPRMC,101347.000,A,4110.1592,N,00835.8452,W,0.00,183.86,270914,,,A*7F
GPSD,O=RMC 1411812827.00 0.005 41.169320 -8.597420          ?        ?        ? 183.8600    0.000          ?             ?        ?        ?        ?,R=1

--------
Systime: 1411812822.84796
$GPGGA,101348.000,4110.1592,N,00835.8452,W,1,05,1.7,166.4,M,51.3,M,,0000*4E
$GPGSA,A,3,16,21,31,18,27,,,,,,,,3.4,1.7,2.9*32
$GPGSV,3,1,12,21,63,085,43,16,55,317,39,27,37,268,41,25,35,207,*70
$GPGSV,3,2,12,31,31,188,47,15,31,048,,02,27,047,,29,17,064,27*7D
$GPGSV,3,3,12,18,16,122,36,10,14,071,,01,10,283,,19,09,254,*79
$GPRMC,101348.000,A,4110.1592,N,00835.8452,W,0.00,183.86,270914,,,A*70
GPSD,O=RMC 1411812828.00 0.005 41.169320 -8.597420          ?        ?        ? 183.8600    0.000          ?             ?        ?        ?        ?,R=1
$GPGGA,101349.000,4110.1592,N,00835.8452,W,1,05,1.7,166.4,M,51.3,M,,0000*4F
$GPGSA,A,3,16,21,31,18,27,,,,,,,,3.4,1.7,2.9*32
$GPRMC,101349.000,A,4110.1592,N,00835.8452,W,0.00,183.86,270914,,,A*71

--------
Systime: 1411812823.89202
$GPGGA,101350.000,4110.1592,N,00835.8452,W,1,05,1.7,166.4,M,51.3,M,,0000*47
$GPGSA,A,3,16,21,31,18,27,,,,,,,,3.4,1.7,2.9*32
$GPRMC,101350.000,A,4110.1592,N,00835.8452,W,0.00,183.86,270914,,,A*79
GPSD,O=RMC 1411812830.00 0.005 41.169320 -8.597420          ?        ?        ? 183.8600    0.000          ?             ?        ?        ?        ?,R=1

--------
Systime: 1411812824.8837
$GPGGA,101351.000,4110.1592,N,00835.8452,W,1,05,1.7,166.4,M,51.3,M,,0000*46
$GPGSA,A,3,16,21,31,18,27,,,,,,,,3.4,1.7,2.9*32
$GPRMC,101351.000,A,4110.1592,N,00835.8452,W,0.00,183.86,270914,,,A*78
GPSD,O=RMC 1411812831.00 0.005 41.169320 -8.597420          ?        ?        ? 183.8600    0.000          ?             ?        ?        ?        ?,R=1

--------
Systime: 1411812825.86464
$GPGGA,101352.000,4110.1592,N,00835.8452,W,1,05,1.7,166.4,M,51.3,M,,0000*45
$GPGSA,A,3,16,21,31,18,27,,,,,,,,3.4,1.7,2.9*32
$GPRMC,101352.000,A,4110.1592,N,00835.8452,W,0.00,183.86,270914,,,A*7B
GPSD,O=RMC 1411812832.00 0.005 41.169320 -8.597420          ?        ?        ? 183.8600    0.000          ?             ?        ?        ?        ?,R=1

--------
Systime: 1411812827.85598
$GPGGA,101353.000,4110.1592,N,00835.8452,W,1,05,1.7,166.4,M,51.3,M,,0000*44
$GPGSA,A,3,16,21,31,18,27,,,,,,,,3.4,1.7,2.9*32
$GPGSV,3,1,12,21,63,085,43,16,55,317,39,27,37,268,42,25,35,207,*73
$GPGSV,3,2,12,31,31,188,47,15,31,048,,02,27,047,,29,17,064,27*7D
$GPGSV,3,3,12,18,16,122,35,10,14,071,,01,10,283,,19,09,254,*7A
$GPRMC,101353.000,A,4110.1592,N,00835.8452,W,0.00,183.86,270914,,,A*7A
GPSD,O=RMC 1411812833.00 0.005 41.169320 -8.597420          ?        ?        ? 183.8600    0.000          ?             ?        ?        ?        ?,R=1
$GPGGA,101354.000,4110.1592,N,00835.8452,W,1,05,1.7,166.4,M,51.3,M,,0000*43
$GPGSA,A,3,16,21,31,18,27,,,,,,,,3.4,1.7,2.9*32
$GPRMC,101354.000,A,4110.1592,N,00835.8452,W,0.00,183.86,270914,,,A*7D

--------
Systime: 1411812828.90721
$GPGGA,101355.000,4110.1592,N,00835.8452,W,1,05,1.7,166.4,M,51.3,M,,0000*42
$GPGSA,A,3,16,21,31,18,27,,,,,,,,3.4,1.7,2.9*32
$GPRMC,101355.000,A,4110.1592,N,00835.8452,W,0.00,183.86,270914,,,A*7C
GPSD,O=RMC 1411812835.00 0.005 41.169320 -8.597420          ?        ?        ? 183.8600    0.000          ?             ?        ?        ?        ?,R=1

--------
Systime: 1411812829.8948
$GPGGA,101356.000,4110.1592,N,00835.8452,W,1,05,1.7,166.4,M,51.3,M,,0000*41
$GPGSA,A,3,16,21,31,18,27,,,,,,,,3.4,1.7,2.9*32
$GPRMC,101356.000,A,4110.1592,N,00835.8452,W,0.00,183.86,270914,,,A*7F
GPSD,O=RMC 1411812836.00 0.005 41.169320 -8.597420          ?        ?        ? 183.8600    0.000          ?             ?        ?        ?        ?,R=1

--------
Systime: 1411812830.81263
$GPGGA,101357.000,4110.1592,N,00835.8452,W,1,05,1.7,166.4,M,51.3,M,,0000*40
$GPGSA,A,3,16,21,31,18,27,,,,,,,,3.4,1.7,2.9*32
$GPRMC,101357.000,A,4110.1592,N,00835.8452,W,0.00,183.86,270914,,,A*7E
GPSD,O=RMC 1411812837.00 0.005 41.169320 -8.597420          ?        ?        ? 183.8600    0.000          ?             ?        ?        ?        ?,R=1

--------
Systime: 1411812832.25147
GPSD,O=RMC 1411812837.00 0.005 41.169320 -8.597420          ?        ?        ? 183.8600    0.000          ?             ?        ?        ?        ?,R=1
$GPGGA,101358.000,4110.1592,N,00835.8452,W,1,05,1.7,166.4,M,51.3,M,,0000*4F
$GPGSA,A,3,16,21,31,18,27,,,,,,,,3.4,1.7,3.0*3A
$GPGSV,3,1,12,21,63,085,43,16,55,317,39,27,37,268,43,25,35,207,*72
$GPGSV,3,2,12,31,31,188,46,15,31,048,,02,27,047,,29,17,064,27*7C
$GPGSV,3,3,12,18,16,122,35,10,14,071,,01,10,283,,19,09,254,*7A
$GPRMC,101358.000,A,4110.1592,N,00835.8452,W,0.00,183.86,270914,,,A*71

--------
Systime: 1411812832.81964
$GPGGA,101359.000,4110.1592,N,00835.8452,W,1,05,1.7,166.4,M,51.3,M,,0000*4E
$GPGSA,A,3,16,21,31,18,27,,,,,,,,3.4,1.7,3.0*3A
$GPRMC,101359.000,A,4110.1592,N,00835.8452,W,0.00,183.86,270914,,,A*70
GPSD,O=RMC 1411812839.00 0.005 41.169320 -8.597420          ?        ?        ? 183.8600    0.000          ?             ?        ?        ?        ?,R=1

--------
Systime: 1411812833.81501
GPSD,O=RMC 1411812839.00 0.005 41.169320 -8.597420          ?        ?        ? 183.8600    0.000          ?             ?        ?        ?        ?,R=1
$GPGGA,101400.000,4110.1592,N,00835.8452,W,1,05,1.7,166.4,M,51.3,M,,0000*45
$GPGSA,A,3,16,21,31,18,27,,,,,,,,3.4,1.7,3.0*3A
$GPRMC,101400.000,A,4110.1592,N,00835.8452,W,0.00,183.86,270914,,,A*7B

--------
Systime: 1411812834.80815
GPSD,O=RMC 1411812840.00 0.005 41.169320 -8.597420          ?        ?        ? 183.8600    0.000          ?             ?        ?        ?        ?,R=1
$GPGGA,101401.000,4110.1592,N,00835.8452,W,1,05,1.7,166.4,M,51.3,M,,0000*44
$GPGSA,A,3,16,21,31,18,27,,,,,,,,3.4,1.7,3.0*3A
$GPRMC,101401.000,A,4110.1592,N,00835.8452,W,0.00,183.86,270914,,,A*7A

--------
Systime: 1411812835.96262
$GPGGA,101402.000,4110.1592,N,00835.8452,W,1,05,1.7,166.4,M,51.3,M,,0000*47
$GPGSA,A,3,16,21,31,18,27,,,,,,,,3.4,1.7,3.0*3A
$GPRMC,101402.000,A,4110.1592,N,00835.8452,W,0.00,183.86,270914,,,A*79
GPSD,O=RMC 1411812842.00 0.005 41.169320 -8.597420          ?        ?        ? 183.8600    0.000          ?             ?        ?        ?        ?,R=1

--------
Systime: 1411812837.27389
$GPGGA,101403.000,4110.1592,N,00835.8452,W,1,05,1.7,166.4,M,51.3,M,,0000*46
$GPGSA,A,3,16,21,31,18,27,,,,,,,,3.4,1.7,3.0*3A
$GPGSV,3,1,12,21,63,085,43,16,55,317,38,27,37,268,43,25,35,207,*73
$GPGSV,3,2,12,31,31,188,46,15,31,048,,02,27,047,,29,17,064,27*7C
$GPGSV,3,3,12,18,16,122,35,10,14,071,,01,10,283,,19,09,254,*7A
$GPRMC,101403.000,A,4110.1592,N,00835.8452,W,0.00,183.86,270914,,,A*78
GPSD,O=RMC 1411812843.00 0.005 41.169320 -8.597420          ?        ?        ? 183.8600    0.000          ?             ?        ?        ?        ?,R=1

--------
Systime: 1411812837.81956
$GPGGA,101404.000,4110.1592,N,00835.8452,W,1,05,1.7,166.4,M,51.3,M,,0000*41
$GPGSA,A,3,16,21,31,18,27,,,,,,,,3.4,1.7,3.0*3A
$GPRMC,101404.000,A,4110.1592,N,00835.8452,W,0.00,183.86,270914,,,A*7F
GPSD,O=RMC 1411812844.00 0.005 41.169320 -8.597420          ?        ?        ? 183.8600    0.000          ?             ?        ?        ?        ?,R=1

--------
Systime: 1411812838.86315
$GPGGA,101405.000,4110.1592,N,00835.8452,W,1,05,1.7,166.4,M,51.3,M,,0000*40
$GPGSA,A,3,16,21,31,18,27,,,,,,,,3.4,1.7,3.0*3A
$GPRMC,101405.000,A,4110.1592,N,00835.8452,W,0.00,183.86,270914,,,A*7E
GPSD,O=RMC 1411812845.00 0.005 41.169320 -8.597420          ?        ?        ? 183.8600    0.000          ?             ?        ?        ?        ?,R=1

--------
Systime: 1411812839.92686
$GPGGA,101406.000,4110.1592,N,00835.8452,W,1,05,1.7,166.4,M,51.3,M,,0000*43
$GPGSA,A,3,16,21,31,18,27,,,,,,,,3.4,1.7,3.0*3A
$GPRMC,101406.000,A,4110.1592,N,00835.8452,W,0.00,183.86,270914,,,A*7D
GPSD,O=RMC 1411812846.00 0.005 41.169320 -8.597420          ?        ?        ? 183.8600    0.000          ?             ?        ?        ?        ?,R=1

--------
Systime: 1411812840.88484
$GPGGA,101407.000,4110.1592,N,00835.8452,W,1,05,1.7,166.4,M,51.3,M,,0000*42
$GPGSA,A,3,16,21,31,18,27,,,,,,,,3.4,1.7,3.0*3A
$GPRMC,101407.000,A,4110.1592,N,00835.8452,W,0.00,183.86,270914,,,A*7C
GPSD,O=RMC 1411812847.00 0.005 41.169320 -8.597420          ?        ?        ? 183.8600    0.000          ?             ?        ?        ?        ?,R=1

--------
Systime: 1411812842.97394
$GPGGA,101408.000,4110.1592,N,00835.8452,W,1,05,1.7,166.4,M,51.3,M,,0000*4D
$GPGSA,A,3,16,21,31,18,27,,,,,,,,3.4,1.7,3.0*3A
$GPGSV,3,1,12,21,63,085,43,16,55,317,38,27,37,268,44,25,35,207,*74
$GPGSV,3,2,12,31,31,188,46,15,31,048,,02,27,047,,29,17,064,28*73
$GPGSV,3,3,12,18,16,122,36,10,14,071,,01,10,283,,19,09,254,*79
$GPRMC,101408.000,A,4110.1592,N,00835.8452,W,0.00,183.86,270914,,,A*73
$GPGGA,101409.000,4110.1592,N,00835.8452,W,1,05,1.7,166.4,M,51.3,M,,0000*4C
$GPGSA,A,3,16,21,31,18,27,,,,,,,,3.4,1.7,3.0*3A
$GPRMC,101409.000,A,4110.1592,N,00835.8452,W,0.00,183.86,270914,,,A*72
GPSD,O=RMC 1411812849.00 0.005 41.169320 -8.597420          ?        ?        ? 183.8600    0.000          ?             ?        ?        ?        ?,R=1

--------
Systime: 1411812843.81366
$GPGGA,101410.000,4110.1592,N,00835.8452,W,1,05,1.7,166.4,M,51.3,M,,0000*44
$GPGSA,A,3,16,21,31,18,27,,,,,,,,3.4,1.7,3.0*3A
$GPRMC,101410.000,A,4110.1592,N,00835.8452,W,0.00,183.86,270914,,,A*7A
GPSD,O=RMC 1411812850.00 0.005 41.169320 -8.597420          ?        ?        ? 183.8600    0.000          ?             ?        ?        ?        ?,R=1

--------
Systime: 1411812844.86279
$GPGGA,101411.000,4110.1592,N,00835.8452,W,1,05,1.7,166.4,M,51.3,M,,0000*45
$GPGSA,A,3,16,21,31,18,27,,,,,,,,3.4,1.7,3.0*3A
$GPRMC,101411.000,A,4110.1592,N,00835.8452,W,0.00,183.86,270914,,,A*7B
GPSD,O=RMC 1411812851.00 0.005 41.169320 -8.597420          ?        ?        ? 183.8600    0.000          ?             ?        ?        ?        ?,R=1

--------
Systime: 1411812845.87821
$GPGGA,101412.000,4110.1592,N,00835.8452,W,1,05,1.7,166.4,M,51.3,M,,0000*46
$GPGSA,A,3,16,21,31,18,27,,,,,,,,3.4,1.7,3.0*3A
$GPRMC,101412.000,A,4110.1592,N,00835.8452,W,0.00,183.86,270914,,,A*78
GPSD,O=RMC 1411812852.00 0.005 41.169320 -8.597420          ?        ?        ? 183.8600    0.000          ?             ?        ?        ?        ?,R=1

--------
Systime: 1411812847.83588
$GPGGA,101413.000,4110.1592,N,00835.8452,W,1,05,1.7,166.4,M,51.3,M,,0000*47
$GPGSA,A,3,16,21,31,18,27,,,,,,,,3.4,1.7,3.0*3A
$GPGSV,3,1,12,21,63,084,43,16,55,317,39,27,37,268,44,25,35,207,*74
$GPGSV,3,2,12,31,31,188,46,15,30,048,,02,27,047,,29,17,064,32*79
$GPGSV,3,3,12,18,16,121,37,10,14,071,,01,10,283,,19,09,254,*7B
$GPRMC,101413.000,A,4110.1592,N,00835.8452,W,0.00,183.86,270914,,,A*79
$GPGGA,101414.000,4110.1592,N,00835.8452,W,1,05,1.7,166.4,M,51.3,M,,0000*40
$GPGSA,A,3,16,21,31,18,27,,,,,,,,3.4,1.7,3.0*3A
$GPRMC,101414.000,A,4110.1592,N,00835.8452,W,0.00,183.86,270914,,,A*7E
GPSD,O=RMC 1411812854.00 0.005 41.169320 -8.597420          ?        ?        ? 183.8600    0.000          ?             ?        ?        ?        ?,R=1

--------
Systime: 1411812848.89352
$GPGGA,101415.000,4110.1592,N,00835.8452,W,1,05,1.7,166.4,M,51.3,M,,0000*41
$GPGSA,A,3,16,21,31,18,27,,,,,,,,3.4,1.7,3.0*3A
$GPRMC,101415.000,A,4110.1592,N,00835.8452,W,0.00,183.86,270914,,,A*7F
GPSD,O=RMC 1411812855.00 0.005 41.169320 -8.597420          ?        ?        ? 183.8600    0.000          ?             ?        ?        ?        ?,R=1

--------
Systime: 1411812850.05674
$GPGGA,101416.000,4110.1592,N,00835.8452,W,1,05,1.7,166.4,M,51.3,M,,0000*42
$GPGSA,A,3,16,21,31,18,27,,,,,,,,3.4,1.7,3.0*3A
$GPRMC,101416.000,A,4110.1592,N,00835.8452,W,0.00,183.86,270914,,,A*7C
GPSD,O=RMC 1411812856.00 0.005 41.169320 -8.597420          ?        ?        ? 183.8600    0.000          ?             ?        ?        ?        ?,R=1

--------
Systime: 1411812850.97467
$GPGGA,101417.000,4110.1592,N,00835.8452,W,1,05,1.7,166.4,M,51.3,M,,0000*43
$GPGSA,A,3,16,21,31,18,27,,,,,,,,3.4,1.7,3.0*3A
$GPRMC,101417.000,A,4110.1592,N,00835.8452,W,0.00,183.86,270914,,,A*7D
GPSD,O=RMC 1411812857.00 0.005 41.169320 -8.597420          ?        ?        ? 183.8600    0.000          ?             ?        ?        ?        ?,R=1

--------
Systime: 1411812852.92545
$GPGGA,101418.000,4110.1592,N,00835.8452,W,1,05,1.7,166.4,M,51.3,M,,0000*4C
$GPGSA,A,3,16,21,31,18,27,,,,,,,,3.4,1.7,3.0*3A
$GPGSV,3,1,12,21,63,084,43,16,55,317,39,27,37,268,45,25,35,207,*75
$GPGSV,3,2,12,31,31,188,46,15,30,048,,02,27,047,,29,17,064,31*7A
$GPGSV,3,3,12,18,16,121,38,10,14,071,,01,10,283,,19,09,254,*74
$GPRMC,101418.000,A,4110.1592,N,00835.8452,W,0.00,183.86,270914,,,A*72
$GPGGA,101419.000,4110.1592,N,00835.8452,W,1,05,1.7,166.4,M,51.3,M,,0000*4D
$GPGSA,A,3,16,21,31,18,27,,,,,,,,3.4,1.7,3.0*3A
$GPRMC,101419.000,A,4110.1592,N,00835.8452,W,0.00,183.86,270914,,,A*73
GPSD,O=RMC 1411812859.00 0.005 41.169320 -8.597420          ?        ?        ? 183.8600    0.000          ?             ?        ?        ?        ?,R=1

--------
Systime: 1411812853.99913
$GPGGA,101420.000,4110.1592,N,00835.8452,W,1,05,1.7,166.4,M,51.3,M,,0000*47
$GPGSA,A,3,16,21,31,18,27,,,,,,,,3.4,1.7,3.0*3A
$GPRMC,101420.000,A,4110.1592,N,00835.8452,W,0.00,183.86,270914,,,A*79
GPSD,O=RMC 1411812860.00 0.005 41.169320 -8.597420          ?        ?        ? 183.8600    0.000          ?             ?        ?        ?        ?,R=1

--------
Systime: 1411812854.81843
$GPGGA,101421.000,4110.1592,N,00835.8452,W,1,05,1.7,166.4,M,51.3,M,,0000*46
$GPGSA,A,3,16,21,31,18,27,,,,,,,,3.4,1.7,3.0*3A
$GPRMC,101421.000,A,4110.1592,N,00835.8452,W,0.00,183.86,270914,,,A*78
GPSD,O=RMC 1411812861.00 0.005 41.169320 -8.597420          ?        ?        ? 183.8600    0.000          ?             ?        ?        ?        ?,R=1

--------
Systime: 1411812855.8159
GPSD,O=RMC 1411812861.00 0.005 41.169320 -8.597420          ?        ?        ? 183.8600    0.000          ?             ?        ?        ?        ?,R=1
$GPGGA,101422.000,4110.1592,N,00835.8452,W,1,05,1.7,166.4,M,51.3,M,,0000*45
$GPGSA,A,3,16,21,31,18,27,,,,,,,,3.4,1.7,3.0*3A
$GPRMC,101422.000,A,4110.1592,N,00835.8452,W,0.00,183.86,270914,,,A*7B

--------
Systime: 1411812857.82214
$GPGGA,101423.000,4110.1592,N,00835.8452,W,1,05,1.7,166.4,M,51.3,M,,0000*44
$GPGSA,A,3,16,21,31,18,27,,,,,,,,3.4,1.7,3.0*3A
$GPGSV,3,1,12,21,63,084,43,16,55,317,40,27,37,268,45,25,35,207,*7B
$GPGSV,3,2,12,31,31,188,46,15,30,048,,02,27,047,,29,17,064,31*7A
$GPGSV,3,3,12,18,16,121,38,10,14,071,,01,10,283,,19,09,254,*74
$GPRMC,101423.000,A,4110.1592,N,00835.8452,W,0.00,183.86,270914,,,A*7A
$GPGGA,101424.000,4110.1592,N,00835.8452,W,1,05,1.7,166.4,M,51.3,M,,0000*43
$GPGSA,A,3,16,21,31,18,27,,,,,,,,3.4,1.7,3.0*3A
$GPRMC,101424.000,A,4110.1592,N,00835.8452,W,0.00,183.86,270914,,,A*7D
GPSD,O=RMC 1411812864.00 0.005 41.169320 -8.597420          ?        ?        ? 183.8600    0.000          ?             ?        ?        ?        ?,R=1

--------
Systime: 1411812858.90771
$GPGGA,101425.000,4110.1592,N,00835.8452,W,1,05,1.7,166.4,M,51.3,M,,0000*42
$GPGSA,A,3,16,21,31,18,27,,,,,,,,3.4,1.7,3.0*3A
$GPRMC,101425.000,A,4110.1592,N,00835.8452,W,0.00,183.86,270914,,,A*7C
GPSD,O=RMC 1411812865.00 0.005 41.169320 -8.597420          ?        ?        ? 183.8600    0.000          ?             ?        ?        ?        ?,R=1

--------
Systime: 1411812859.99793
$GPGGA,101426.000,4110.1592,N,00835.8452,W,1,05,1.7,166.4,M,51.3,M,,0000*41
$GPGSA,A,3,16,21,31,18,27,,,,,,,,3.4,1.7,3.0*3A
$GPRMC,101426.000,A,4110.1592,N,00835.8452,W,0.00,183.86,270914,,,A*7F
GPSD,O=RMC 1411812866.00 0.005 41.169320 -8.597420          ?        ?        ? 183.8600    0.000          ?             ?        ?        ?        ?,R=1

--------
Systime: 1411812861.05475
$GPGGA,101427.000,4110.1592,N,00835.8452,W,1,05,1.7,166.4,M,51.3,M,,0000*40
$GPGSA,A,3,16,21,31,18,27,,,,,,,,3.4,1.7,3.0*3A
$GPRMC,101427.000,A,4110.1592,N,00835.8452,W,0.00,183.86,270914,,,A*7E
GPSD,O=RMC 1411812867.00 0.005 41.169320 -8.597420          ?        ?        ? 183.8600    0.000          ?             ?        ?        ?        ?,R=1

--------
Systime: 1411812862.29044
$GPGGA,101428.000,4110.1592,N,00835.8452,W,1,05,1.7,166.4,M,51.3,M,,0000*4F
$GPGSA,A,3,16,21,31,18,27,,,,,,,,3.4,1.7,3.0*3A
$GPGSV,3,1,12,21,63,084,42,16,55,317,40,27,37,268,45,25,35,207,*7A
$GPGSV,3,2,12,31,31,188,45,15,30,048,,02,27,047,,29,17,064,31*79
$GPGSV,3,3,12,18,16,121,38,10,14,071,,01,10,283,,19,09,254,*74
$GPRMC,101428.000,A,4110.1592,N,00835.8452,W,0.00,183.86,270914,,,A*71
GPSD,O=RMC 1411812868.00 0.005 41.169320 -8.597420          ?        ?        ? 183.8600    0.000          ?             ?        ?        ?        ?,R=1

--------
Systime: 1411812863.09293
$GPGGA,101429.000,4110.1592,N,00835.8452,W,1,05,1.7,166.4,M,51.3,M,,0000*4E
$GPGSA,A,3,16,21,31,18,27,,,,,,,,3.4,1.7,3.0*3A
$GPRMC,101429.000,A,4110.1592,N,00835.8452,W,0.00,183.86,270914,,,A*70
GPSD,O=RMC 1411812869.00 0.005 41.169320 -8.597420          ?        ?        ? 183.8600    0.000          ?             ?        ?        ?        ?,R=1

--------
Systime: 1411812863.83647
$GPGGA,101430.000,4110.1592,N,00835.8452,W,1,05,1.7,166.4,M,51.3,M,,0000*46
$GPGSA,A,3,16,21,31,18,27,,,,,,,,3.4,1.7,3.0*3A
$GPRMC,101430.000,A,4110.1592,N,00835.8452,W,0.00,183.86,270914,,,A*78
GPSD,O=RMC 1411812870.00 0.005 41.169320 -8.597420          ?        ?        ? 183.8600    0.000          ?             ?        ?        ?        ?,R=1

--------
Systime: 1411812864.8211
$GPGGA,101431.000,4110.1592,N,00835.8452,W,1,05,1.7,166.4,M,51.3,M,,0000*47
$GPGSA,A,3,16,21,31,18,27,,,,,,,,3.4,1.7,3.0*3A
$GPRMC,101431.000,A,4110.1592,N,00835.8452,W,0.00,183.86,270914,,,A*79
GPSD,O=RMC 1411812871.00 0.005 41.169320 -8.597420          ?        ?        ? 183.8600    0.000          ?             ?        ?        ?        ?,R=1

--------
Systime: 1411812866.14282
$GPGGA,101432.000,4110.1592,N,00835.8452,W,1,05,1.7,166.4,M,51.3,M,,0000*44
$GPGSA,A,3,16,21,31,18,27,,,,,,,,3.4,1.7,3.0*3A
$GPRMC,101432.000,A,4110.1592,N,00835.8452,W,0.00,183.86,270914,,,A*7A
GPSD,O=RMC 1411812872.00 0.005 41.169320 -8.597420          ?        ?        ? 183.8600    0.000          ?             ?        ?        ?        ?,R=1

--------
Systime: 1411812867.9115
$GPGGA,101433.000,4110.1592,N,00835.8452,W,1,05,1.7,166.4,M,51.3,M,,0000*45
$GPGSA,A,3,16,21,31,18,27,,,,,,,,3.5,1.7,3.0*3B
$GPGSV,3,1,12,21,63,084,42,16,55,317,41,27,37,268,46,25,35,207,*78
$GPGSV,3,2,12,31,31,188,46,15,30,048,,02,27,047,,29,17,064,30*7B
$GPGSV,3,3,12,18,16,121,38,10,14,071,,01,10,283,,19,09,254,*74
$GPRMC,101433.000,A,4110.1592,N,00835.8452,W,0.00,183.86,270914,,,A*7B
$GPGGA,101434.000,4110.1592,N,00835.8452,W,1,06,1.2,166.4,M,51.3,M,,0000*44
$GPGSA,A,3,16,21,31,18,29,27,,,,,,,2.5,1.2,2.2*37
$GPRMC,101434.000,A,4110.1592,N,00835.8452,W,0.00,183.86,270914,,,A*7C
GPSD,O=RMC 1411812874.00 0.005 41.169320 -8.597420          ?        ?        ? 183.8600    0.000          ?             ?        ?        ?        ?,R=1

--------
Systime: 1411812868.98903
$GPGGA,101435.000,4110.1592,N,00835.8452,W,1,06,1.2,166.4,M,51.3,M,,0000*45
$GPGSA,A,3,16,21,31,18,29,27,,,,,,,2.5,1.2,2.2*37
$GPRMC,101435.000,A,4110.1592,N,00835.8452,W,0.00,183.86,270914,,,A*7D
GPSD,O=RMC 1411812875.00 0.005 41.169320 -8.597420          ?        ?        ? 183.8600    0.000          ?             ?        ?        ?        ?,R=1

--------
Systime: 1411812869.84259
$GPGGA,101436.000,4110.1592,N,00835.8452,W,1,06,1.2,166.4,M,51.3,M,,0000*46
$GPGSA,A,3,16,21,31,18,29,27,,,,,,,2.5,1.2,2.2*37
$GPRMC,101436.000,A,4110.1592,N,00835.8452,W,0.00,183.86,270914,,,A*7E
GPSD,O=RMC 1411812876.00 0.005 41.169320 -8.597420          ?        ?        ? 183.8600    0.000          ?             ?        ?        ?        ?,R=1

--------
Systime: 1411812870.84292
$GPGGA,101437.000,4110.1592,N,00835.8452,W,1,06,1.2,166.4,M,51.3,M,,0000*47
$GPGSA,A,3,16,21,31,18,29,27,,,,,,,2.5,1.2,2.2*37
$GPRMC,101437.000,A,4110.1592,N,00835.8452,W,0.00,183.86,270914,,,A*7F
GPSD,O=RMC 1411812877.00 0.005 41.169320 -8.597420          ?        ?        ? 183.8600    0.000          ?             ?        ?        ?        ?,R=1

--------
Systime: 1411812872.28098
$GPGGA,101438.000,4110.1592,N,00835.8452,W,1,06,1.2,166.4,M,51.3,M,,0000*48
$GPGSA,A,3,16,21,31,18,29,27,,,,,,,2.5,1.2,2.2*37
$GPGSV,3,1,12,21,63,084,42,16,56,317,41,27,37,268,46,25,34,207,*7A
$GPGSV,3,2,12,31,31,188,46,15,30,048,,02,27,047,,29,17,064,24*7E
$GPGSV,3,3,12,18,16,121,39,10,14,071,,01,10,283,,19,09,254,*75
$GPRMC,101438.000,A,4110.1592,N,00835.8452,W,0.00,183.86,270914,,,A*70
GPSD,O=RMC 1411812878.00 0.005 41.169320 -8.597420          ?        ?        ? 183.8600    0.000          ?             ?        ?        ?        ?,R=1

--------
Systime: 1411812872.83442
$GPGGA,101439.000,4110.1592,N,00835.8452,W,1,06,1.2,166.4,M,51.3,M,,0000*49
$GPGSA,A,3,16,21,31,18,29,27,,,,,,,2.5,1.2,2.2*37
$GPRMC,101439.000,A,4110.1592,N,00835.8452,W,0.00,183.86,270914,,,A*71
GPSD,O=RMC 1411812879.00 0.005 41.169320 -8.597420          ?        ?        ? 183.8600    0.000          ?             ?        ?        ?        ?,R=1

--------
Systime: 1411812873.83934
$GPGGA,101440.000,4110.1592,N,00835.8452,W,1,06,1.2,166.4,M,51.3,M,,0000*47
$GPGSA,A,3,16,21,31,18,29,27,,,,,,,2.5,1.2,2.2*37
$GPRMC,101440.000,A,4110.1592,N,00835.8452,W,0.00,183.86,270914,,,A*7F
GPSD,O=RMC 1411812880.00 0.005 41.169320 -8.597420          ?        ?        ? 183.8600    0.000          ?             ?        ?        ?        ?,R=1

--------
Systime: 1411812874.8402
$GPGGA,101441.000,4110.1592,N,00835.8452,W,1,06,1.2,166.4,M,51.3,M,,0000*46
$GPGSA,A,3,16,21,31,18,29,27,,,,,,,2.5,1.2,2.2*37
$GPRMC,101441.000,A,4110.1592,N,00835.8452,W,0.00,183.86,270914,,,A*7E
GPSD,O=RMC 1411812881.00 0.005 41.169320 -8.597420          ?        ?        ? 183.8600    0.000          ?             ?        ?        ?        ?,R=1

--------
Systime: 1411812875.83572
$GPGGA,101442.000,4110.1592,N,00835.8452,W,1,06,1.2,166.4,M,51.3,M,,0000*45
$GPGSA,A,3,16,21,31,18,29,27,,,,,,,2.5,1.2,2.2*37
$GPRMC,101442.000,A,4110.1592,N,00835.8452,W,0.00,183.86,270914,,,A*7D
GPSD,O=RMC 1411812882.00 0.005 41.169320 -8.597420          ?        ?        ? 183.8600    0.000          ?             ?        ?        ?        ?,R=1

--------
Systime: 1411812877.2819
$GPGGA,101443.000,4110.1592,N,00835.8452,W,1,06,1.2,166.4,M,51.3,M,,0000*44
$GPGSA,A,3,16,21,31,18,29,27,,,,,,,2.5,1.2,2.2*37
$GPGSV,3,1,12,21,63,084,43,16,56,317,41,27,37,268,46,25,34,207,*7B
$GPGSV,3,2,12,31,31,188,46,15,30,048,,02,27,047,,29,17,064,23*79
$GPGSV,3,3,12,18,16,121,39,10,14,071,,01,09,283,,19,09,254,*7D
$GPRMC,101443.000,A,4110.1592,N,00835.8452,W,0.00,183.86,270914,,,A*7C
GPSD,O=RMC 1411812883.00 0.005 41.169320 -8.597420          ?        ?        ? 183.8600    0.000          ?             ?        ?        ?        ?,R=1

--------
Systime: 1411812877.83754
$GPGGA,101444.000,4110.1592,N,00835.8452,W,1,06,1.2,166.4,M,51.3,M,,0000*43
$GPGSA,A,3,16,21,31,18,29,27,,,,,,,2.5,1.2,2.2*37
$GPRMC,101444.000,A,4110.1592,N,00835.8452,W,0.00,183.86,270914,,,A*7B
GPSD,O=RMC 1411812884.00 0.005 41.169320 -8.597420          ?        ?        ? 183.8600    0.000          ?             ?        ?        ?        ?,R=1

--------
Systime: 1411812878.87829
$GPGGA,101445.000,4110.1592,N,00835.8452,W,1,06,1.2,166.4,M,51.3,M,,0000*42
$GPGSA,A,3,16,21,31,18,29,27,,,,,,,2.5,1.2,2.2*37
$GPRMC,101445.000,A,4110.1592,N,00835.8452,W,0.00,183.86,270914,,,A*7A
GPSD,O=RMC 1411812885.00 0.005 41.169320 -8.597420          ?        ?        ? 183.8600    0.000          ?             ?        ?        ?        ?,R=1

--------
Systime: 1411812879.88995
$GPGGA,101446.000,4110.1592,N,00835.8452,W,1,06,1.2,166.4,M,51.3,M,,0000*41
$GPGSA,A,3,16,21,31,18,29,27,,,,,,,2.5,1.2,2.2*37
$GPRMC,101446.000,A,4110.1592,N,00835.8452,W,0.00,183.86,270914,,,A*79
GPSD,O=RMC 1411812886.00 0.005 41.169320 -8.597420          ?        ?        ? 183.8600    0.000          ?             ?        ?        ?        ?,R=1

--------
Systime: 1411812880.93114
$GPGGA,101447.000,4110.1592,N,00835.8452,W,1,06,1.2,166.4,M,51.3,M,,0000*40
$GPGSA,A,3,16,21,31,18,29,27,,,,,,,2.5,1.2,2.2*37
$GPRMC,101447.000,A,4110.1592,N,00835.8452,W,0.00,183.86,270914,,,A*78
GPSD,O=RMC 1411812887.00 0.005 41.169320 -8.597420          ?        ?        ? 183.8600    0.000          ?             ?        ?        ?        ?,R=1

--------
Systime: 1411812882.86039
$GPGGA,101448.000,4110.1592,N,00835.8452,W,1,07,1.1,166.4,M,51.3,M,,0000*4D
$GPGSA,A,3,16,21,31,18,29,27,19,,,,,,1.9,1.1,1.5*37
$GPGSV,3,1,12,21,63,084,43,16,56,317,41,27,37,268,46,25,34,207,*7B
$GPGSV,3,2,12,31,31,188,47,15,30,048,,02,27,047,,29,17,064,22*79
$GPGSV,3,3,12,18,16,121,38,01,09,283,,19,09,254,30,08,07,326,*75
$GPRMC,101448.000,A,4110.1592,N,00835.8452,W,0.00,183.86,270914,,,A*77
GPSD,O=RMC 1411812888.00 0.005 41.169320 -8.597420          ?        ?        ? 183.8600    0.000          ?             ?        ?        ?        ?,R=1
$GPGGA,101449.000,4110.1592,N,00835.8452,W,1,07,1.1,166.4,M,51.3,M,,0000*4C
$GPGSA,A,3,16,21,31,18,29,27,19,,,,,,1.9,1.1,1.5*37
$GPRMC,101449.000,A,4110.1592,N,00835.8452,W,0.00,183.86,270914,,,A*76

--------
Systime: 1411812883.90638
$GPGGA,101450.000,4110.1592,N,00835.8452,W,1,07,1.1,166.4,M,51.3,M,,0000*44
$GPGSA,A,3,16,21,31,18,29,27,19,,,,,,1.9,1.1,1.5*37
$GPRMC,101450.000,A,4110.1592,N,00835.8452,W,0.00,183.86,270914,,,A*7E
GPSD,O=RMC 1411812890.00 0.005 41.169320 -8.597420          ?        ?        ? 183.8600    0.000          ?             ?        ?        ?        ?,R=1

--------
Systime: 1411812884.88852
$GPGGA,101451.000,4110.1592,N,00835.8452,W,1,07,1.1,166.4,M,51.3,M,,0000*45
$GPGSA,A,3,16,21,31,18,29,27,19,,,,,,1.9,1.1,1.5*37
$GPRMC,101451.000,A,4110.1592,N,00835.8452,W,0.00,183.86,270914,,,A*7F
GPSD,O=RMC 1411812891.00 0.005 41.169320 -8.597420          ?        ?        ? 183.8600    0.000          ?             ?        ?        ?        ?,R=1

--------
Systime: 1411812885.9105
$GPGGA,101452.000,4110.1592,N,00835.8452,W,1,07,1.1,166.4,M,51.3,M,,0000*46
$GPGSA,A,3,16,21,31,18,29,27,19,,,,,,1.9,1.1,1.5*37
$GPRMC,101452.000,A,4110.1592,N,00835.8452,W,0.00,183.86,270914,,,A*7C
GPSD,O=RMC 1411812892.00 0.005 41.169320 -8.597420          ?        ?        ? 183.8600    0.000          ?             ?        ?        ?        ?,R=1

--------
Systime: 1411812887.90979
$GPGGA,101453.000,4110.1592,N,00835.8452,W,1,07,1.1,166.4,M,51.3,M,,0000*47
$GPGSA,A,3,16,21,31,18,29,27,19,,,,,,1.9,1.1,1.5*37
$GPGSV,3,1,12,21,63,084,43,16,56,317,42,27,37,268,46,25,34,207,*78
$GPGSV,3,2,12,31,31,188,47,15,30,048,,02,27,047,,29,17,064,22*79
$GPGSV,3,3,12,18,16,121,38,01,09,283,,19,09,254,31,08,07,326,*74
$GPRMC,101453.000,A,4110.1592,N,00835.8452,W,0.00,183.86,270914,,,A*7D
$GPGGA,101454.000,4110.1592,N,00835.8452,W,1,07,1.1,166.4,M,51.3,M,,0000*40
$GPGSA,A,3,16,21,31,18,29,27,19,,,,,,1.9,1.1,1.5*37
$GPRMC,101454.000,A,4110.1592,N,00835.8452,W,0.00,183.86,270914,,,A*7A
GPSD,O=RMC 1411812894.00 0.005 41.169320 -8.597420          ?        ?        ? 183.8600    0.000          ?             ?        ?        ?        ?,R=1

--------
Systime: 1411812888.93534
$GPGGA,101455.000,4110.1592,N,00835.8452,W,1,07,1.1,166.4,M,51.3,M,,0000*41
$GPGSA,A,3,16,21,31,18,29,27,19,,,,,,1.9,1.1,1.5*37
$GPRMC,101455.000,A,4110.1592,N,00835.8452,W,0.00,183.86,270914,,,A*7B
GPSD,O=RMC 1411812895.00 0.005 41.169320 -8.597420          ?        ?        ? 183.8600    0.000          ?             ?        ?        ?        ?,R=1

--------
Systime: 1411812889.92659
$GPGGA,101456.000,4110.1592,N,00835.8452,W,1,07,1.1,166.4,M,51.3,M,,0000*42
$GPGSA,A,3,16,21,31,18,29,27,19,,,,,,1.9,1.1,1.5*37
$GPRMC,101456.000,A,4110.1592,N,00835.8452,W,0.00,183.86,270914,,,A*78
GPSD,O=RMC 1411812896.00 0.005 41.169320 -8.597420          ?        ?        ? 183.8600    0.000          ?             ?        ?        ?        ?,R=1

--------
Systime: 1411812890.89615
$GPGGA,101457.000,4110.1592,N,00835.8452,W,1,07,1.1,166.4,M,51.3,M,,0000*43
$GPGSA,A,3,16,21,31,18,29,27,19,,,,,,1.9,1.1,1.5*37
$GPRMC,101457.000,A,4110.1592,N,00835.8452,W,0.00,183.86,270914,,,A*79
GPSD,O=RMC 1411812897.00 0.005 41.169320 -8.597420          ?        ?        ? 183.8600    0.000          ?             ?        ?        ?        ?,R=1

--------
Systime: 1411812892.88205
$GPGGA,101458.000,4110.1592,N,00835.8452,W,1,07,1.1,166.4,M,51.3,M,,0000*4C
$GPGSA,A,3,16,21,31,18,29,27,19,,,,,,1.9,1.1,1.5*37
$GPGSV,3,1,12,21,63,084,43,16,56,317,41,27,37,268,45,25,34,207,*78
$GPGSV,3,2,12,31,31,188,48,15,30,048,,02,27,047,,29,17,064,21*75
$GPGSV,3,3,12,18,16,121,38,01,09,283,,19,09,254,31,08,07,326,*74
$GPRMC,101458.000,A,4110.1592,N,00835.8452,W,0.00,183.86,270914,,,A*76
GPSD,O=RMC 1411812898.00 0.005 41.169320 -8.597420          ?        ?        ? 183.8600    0.000          ?             ?        ?        ?        ?,R=1
$GPGGA,101459.000,4110.1592,N,00835.8452,W,1,07,1.1,166.4,M,51.3,M,,0000*4D
$GPGSA,A,3,16,21,31,18,29,27,19,,,,,,1.9,1.1,1.5*37
$GPRMC,101459.000,A,4110.1592,N,00835.8452,W,0.00,183.86,270914,,,A*77

--------
Systime: 1411812893.91576
$GPGGA,101500.000,4110.1592,N,00835.8452,W,1,07,1.1,166.4,M,51.3,M,,0000*40
$GPGSA,A,3,16,21,31,18,29,27,19,,,,,,1.9,1.1,1.5*37
$GPRMC,101500.000,A,4110.1592,N,00835.8452,W,0.00,183.86,270914,,,A*7A
GPSD,O=RMC 1411812900.00 0.005 41.169320 -8.597420          ?        ?        ? 183.8600    0.000          ?             ?        ?        ?        ?,R=1

--------
Systime: 1411812894.89315
$GPGGA,101501.000,4110.1592,N,00835.8452,W,1,07,1.1,166.4,M,51.3,M,,0000*41
$GPGSA,A,3,16,21,31,18,29,27,19,,,,,,1.9,1.1,1.5*37
$GPRMC,101501.000,A,4110.1592,N,00835.8452,W,0.00,183.86,270914,,,A*7B
GPSD,O=RMC 1411812901.00 0.005 41.169320 -8.597420          ?        ?        ? 183.8600    0.000          ?             ?        ?        ?        ?,R=1

--------
Systime: 1411812895.96144
$GPGGA,101502.000,4110.1592,N,00835.8452,W,1,07,1.1,166.4,M,51.3,M,,0000*42
$GPGSA,A,3,16,21,31,18,29,27,19,,,,,,1.9,1.1,1.5*37
$GPRMC,101502.000,A,4110.1592,N,00835.8452,W,0.00,183.86,270914,,,A*78
GPSD,O=RMC 1411812902.00 0.005 41.169320 -8.597420          ?        ?        ? 183.8600    0.000          ?             ?        ?        ?        ?,R=1

--------
Systime: 1411812897.8923
$GPGGA,101503.000,4110.1592,N,00835.8452,W,1,07,1.1,166.4,M,51.3,M,,0000*43
$GPGSA,A,3,16,21,31,18,29,27,19,,,,,,1.9,1.1,1.5*37
$GPGSV,3,1,12,21,63,084,43,16,56,317,41,27,37,268,45,25,34,207,*78
$GPGSV,3,2,12,31,31,188,48,15,30,048,,02,27,047,,29,17,064,21*75
$GPGSV,3,3,12,18,16,121,38,01,09,283,,19,09,254,31,08,07,326,*74
$GPRMC,101503.000,A,4110.1592,N,00835.8452,W,0.00,183.86,270914,,,A*79
$GPGGA,101504.000,4110.1592,N,00835.8452,W,1,07,1.1,166.4,M,51.3,M,,0000*44
$GPGSA,A,3,16,21,31,18,29,27,19,,,,,,1.9,1.1,1.5*37
$GPRMC,101504.000,A,4110.1592,N,00835.8452,W,0.00,183.86,270914,,,A*7E
GPSD,O=RMC 1411812904.00 0.005 41.169320 -8.597420          ?        ?        ? 183.8600    0.000          ?             ?        ?        ?        ?,R=1

--------
Systime: 1411812899.17697
$GPGGA,101505.000,4110.1592,N,00835.8452,W,1,07,1.1,166.4,M,51.3,M,,0000*45
$GPGSA,A,3,16,21,31,18,29,27,19,,,,,,1.9,1.1,1.5*37
$GPRMC,101505.000,A,4110.1592,N,00835.8452,W,0.00,183.86,270914,,,A*7F
GPSD,O=RMC 1411812905.00 0.005 41.169320 -8.597420          ?        ?        ? 183.8600    0.000          ?             ?        ?        ?        ?,R=1

--------
Systime: 1411812899.92
$GPGGA,101506.000,4110.1592,N,00835.8452,W,1,07,1.1,166.4,M,51.3,M,,0000*46
$GPGSA,A,3,16,21,31,18,29,27,19,,,,,,1.9,1.1,1.5*37
$GPRMC,101506.000,A,4110.1592,N,00835.8452,W,0.00,183.86,270914,,,A*7C
GPSD,O=RMC 1411812906.00 0.005 41.169320 -8.597420          ?        ?        ? 183.8600    0.000          ?             ?        ?        ?        ?,R=1

--------
Systime: 1411812900.91203
$GPGGA,101507.000,4110.1592,N,00835.8452,W,1,07,1.1,166.4,M,51.3,M,,0000*47
$GPGSA,A,3,16,21,31,18,29,27,19,,,,,,1.9,1.1,1.5*37
$GPRMC,101507.000,A,4110.1592,N,00835.8452,W,0.00,183.86,270914,,,A*7D
GPSD,O=RMC 1411812907.00 0.005 41.169320 -8.597420          ?        ?        ? 183.8600    0.000          ?             ?        ?        ?        ?,R=1

--------
Systime: 1411812902.87891
$GPGGA,101508.000,4110.1592,N,00835.8452,W,1,07,1.1,166.4,M,51.3,M,,0000*48
$GPGSA,A,3,16,21,31,18,29,27,19,,,,,,1.9,1.1,1.5*37
$GPGSV,3,1,12,21,63,084,43,16,56,317,41,27,37,268,45,25,34,207,*78
$GPGSV,3,2,12,31,31,188,48,15,30,048,,02,27,047,,29,17,064,21*75
$GPGSV,3,3,12,18,16,121,37,01,09,283,,19,09,254,31,08,07,326,*7B
$GPRMC,101508.000,A,4110.1592,N,00835.8452,W,0.00,183.86,270914,,,A*72
GPSD,O=RMC 1411812908.00 0.005 41.169320 -8.597420          ?        ?        ? 183.8600    0.000          ?             ?        ?        ?        ?,R=1
$GPGGA,101509.000,4110.1592,N,00835.8452,W,1,07,1.1,166.4,M,51.3,M,,0000*49
$GPGSA,A,3,16,21,31,18,29,27,19,,,,,,1.9,1.1,1.5*37
$GPRMC,101509.000,A,4110.1592,N,00835.8452,W,0.00,183.86,270914,,,A*73

--------
Systime: 1411812903.92458
$GPGGA,101510.000,4110.1592,N,00835.8452,W,1,07,1.1,166.4,M,51.3,M,,0000*41
$GPGSA,A,3,16,21,31,18,29,27,19,,,,,,1.9,1.1,1.5*37
$GPRMC,101510.000,A,4110.1592,N,00835.8452,W,0.00,183.86,270914,,,A*7B
GPSD,O=RMC 1411812910.00 0.005 41.169320 -8.597420          ?        ?        ? 183.8600    0.000          ?             ?        ?        ?        ?,R=1

--------
Systime: 1411812904.92291
$GPGGA,101511.000,4110.1592,N,00835.8452,W,1,07,1.1,166.4,M,51.3,M,,0000*40
$GPGSA,A,3,16,21,31,18,29,27,19,,,,,,1.9,1.1,1.5*37
$GPRMC,101511.000,A,4110.1592,N,00835.8452,W,0.00,183.86,270914,,,A*7A
GPSD,O=RMC 1411812911.00 0.005 41.169320 -8.597420          ?        ?        ? 183.8600    0.000          ?             ?        ?        ?        ?,R=1

--------
Systime: 1411812905.8789
$GPGGA,101512.000,4110.1592,N,00835.8452,W,1,07,1.1,166.4,M,51.3,M,,0000*43
$GPGSA,A,3,16,21,31,18,29,27,19,,,,,,1.9,1.1,1.5*37
$GPRMC,101512.000,A,4110.1592,N,00835.8452,W,0.00,183.86,270914,,,A*79
GPSD,O=RMC 1411812912.00 0.005 41.169320 -8.597420          ?        ?        ? 183.8600    0.000          ?             ?        ?        ?        ?,R=1

--------
Systime: 1411812907.84225
$GPGGA,101513.000,4110.1592,N,00835.8452,W,1,06,1.6,166.4,M,51.3,M,,0000*44
$GPGSA,A,3,16,21,31,18,27,19,,,,,,,2.6,1.6,2.1*30
$GPGSV,3,1,12,21,63,084,43,16,56,317,41,27,37,268,46,25,34,207,*7B
$GPGSV,3,2,12,31,31,188,48,15,30,048,,02,27,047,,29,17,064,22*76
$GPGSV,3,3,12,18,16,121,36,01,09,283,,19,09,254,30,08,07,326,*7B
$GPRMC,101513.000,A,4110.1592,N,00835.8452,W,0.00,183.86,270914,,,A*78
GPSD,O=RMC 1411812913.00 0.005 41.169320 -8.597420          ?        ?        ? 183.8600    0.000          ?             ?        ?        ?        ?,R=1
$GPGGA,101514.000,4110.1592,N,00835.8452,W,1,06,1.6,166.4,M,51.3,M,,0000*43
$GPGSA,A,3,16,21,31,18,27,19,,,,,,,2.6,1.6,2.1*30
$GPRMC,101514.000,A,4110.1592,N,00835.8452,W,0.00,183.86,270914,,,A*7F

--------
Systime: 1411812908.88052
$GPGGA,101515.000,4110.1592,N,00835.8452,W,1,06,1.6,166.4,M,51.3,M,,0000*42
$GPGSA,A,3,16,21,31,18,27,19,,,,,,,2.6,1.6,2.1*30
$GPRMC,101515.000,A,4110.1592,N,00835.8452,W,0.00,183.86,270914,,,A*7E
GPSD,O=RMC 1411812915.00 0.005 41.169320 -8.597420          ?        ?        ? 183.8600    0.000          ?             ?        ?        ?        ?,R=1

--------
Systime: 1411812909.88467
$GPGGA,101516.000,4110.1592,N,00835.8452,W,1,06,1.6,166.4,M,51.3,M,,0000*41
$GPGSA,A,3,16,21,31,18,27,19,,,,,,,2.6,1.6,2.1*30
$GPRMC,101516.000,A,4110.1592,N,00835.8452,W,0.00,183.86,270914,,,A*7D
GPSD,O=RMC 1411812916.00 0.005 41.169320 -8.597420          ?        ?        ? 183.8600    0.000          ?             ?        ?        ?        ?,R=1

--------
Systime: 1411812910.89913
$GPGGA,101517.000,4110.1592,N,00835.8452,W,1,06,1.6,166.4,M,51.3,M,,0000*40
$GPGSA,A,3,16,21,31,18,27,19,,,,,,,2.6,1.6,2.1*30
$GPRMC,101517.000,A,4110.1592,N,00835.8452,W,0.00,183.86,270914,,,A*7C
GPSD,O=RMC 1411812917.00 0.005 41.169320 -8.597420          ?        ?        ? 183.8600    0.000          ?             ?        ?        ?        ?,R=1

--------
Systime: 1411812912.33234
$GPGGA,101518.000,4110.1592,N,00835.8452,W,1,06,1.6,166.4,M,51.3,M,,0000*4F
$GPGSA,A,3,16,21,31,18,27,19,,,,,,,2.6,1.6,2.1*30
$GPGSV,3,1,12,21,63,083,43,16,56,317,41,27,37,269,46,25,34,207,*7D
$GPGSV,3,2,12,31,31,187,48,15,30,048,,02,27,047,,18,17,121,35*7D
$GPGSV,3,3,12,29,17,064,,01,09,283,,19,09,255,29,08,08,326,*7B
$GPRMC,101518.000,A,4110.1592,N,00835.8452,W,0.00,183.86,270914,,,A*73
GPSD,O=RMC 1411812918.00 0.005 41.169320 -8.597420          ?        ?        ? 183.8600    0.000          ?             ?        ?        ?        ?,R=1

--------
Systime: 1411812912.88772
$GPGGA,101519.000,4110.1592,N,00835.8452,W,1,06,1.6,166.4,M,51.3,M,,0000*4E
$GPGSA,A,3,16,21,31,18,27,19,,,,,,,2.6,1.6,2.1*30
$GPRMC,101519.000,A,4110.1592,N,00835.8452,W,0.00,183.86,270914,,,A*72
GPSD,O=RMC 1411812919.00 0.005 41.169320 -8.597420          ?        ?        ? 183.8600    0.000          ?             ?        ?        ?        ?,R=1

--------
Systime: 1411812913.90559
$GPGGA,101520.000,4110.1592,N,00835.8452,W,1,06,1.6,166.4,M,51.3,M,,0000*44
$GPGSA,A,3,16,21,31,18,27,19,,,,,,,2.6,1.6,2.1*30
$GPRMC,101520.000,A,4110.1592,N,00835.8452,W,0.00,183.86,270914,,,A*78
GPSD,O=RMC 1411812920.00 0.005 41.169320 -8.597420          ?        ?        ? 183.8600    0.000          ?             ?        ?        ?        ?,R=1

--------
Systime: 1411812914.91808
$GPGGA,101521.000,4110.1592,N,00835.8452,W,1,06,1.6,166.4,M,51.3,M,,0000*45
$GPGSA,A,3,16,21,31,18,27,19,,,,,,,2.6,1.6,2.1*30
$GPRMC,101521.000,A,4110.1592,N,00835.8452,W,0.00,183.86,270914,,,A*79
GPSD,O=RMC 1411812921.00 0.005 41.169320 -8.597420          ?        ?        ? 183.8600    0.000          ?             ?        ?        ?        ?,R=1

--------
Systime: 1411812915.90432
$GPGGA,101522.000,4110.1592,N,00835.8452,W,1,06,1.6,166.4,M,51.3,M,,0000*46
$GPGSA,A,3,16,21,31,18,27,19,,,,,,,2.6,1.6,2.1*30
$GPRMC,101522.000,A,4110.1592,N,00835.8452,W,0.00,183.86,270914,,,A*7A
GPSD,O=RMC 1411812922.00 0.005 41.169320 -8.597420          ?        ?        ? 183.8600    0.000          ?             ?        ?        ?        ?,R=1

--------
Systime: 1411812917.83812
$GPGGA,101523.000,4110.1592,N,00835.8452,W,1,06,1.6,166.4,M,51.3,M,,0000*47
$GPGSA,A,3,16,21,31,18,27,19,,,,,,,2.6,1.6,2.1*30
$GPGSV,3,1,12,21,63,083,43,16,56,317,41,27,37,269,46,25,34,207,*7D
$GPGSV,3,2,12,31,31,187,48,15,30,048,,02,27,047,,18,17,121,35*7D
$GPGSV,3,3,12,29,17,064,26,01,09,283,,19,09,255,29,08,08,326,*7F
$GPRMC,101523.000,A,4110.1592,N,00835.8452,W,0.00,183.86,270914,,,A*7B
GPSD,O=RMC 1411812923.00 0.005 41.169320 -8.597420          ?        ?        ? 183.8600    0.000          ?             ?        ?        ?        ?,R=1
$GPGGA,101524.000,4110.1592,N,00835.8452,W,1,06,1.6,166.4,M,51.3,M,,0000*40
$GPGSA,A,3,16,21,31,18,27,19,,,,,,,2.6,1.6,2.1*30
$GPRMC,101524.000,A,4110.1592,N,00835.8452,W,0.00,183.86,270914,,,A*7C

--------
Systime: 1411812918.88914
$GPGGA,101525.000,4110.1592,N,00835.8452,W,1,06,1.6,166.4,M,51.3,M,,0000*41
$GPGSA,A,3,16,21,31,18,27,19,,,,,,,2.6,1.6,2.1*30
$GPRMC,101525.000,A,4110.1592,N,00835.8452,W,0.00,183.86,270914,,,A*7D
GPSD,O=RMC 1411812925.00 0.005 41.169320 -8.597420          ?        ?        ? 183.8600    0.000          ?             ?        ?        ?        ?,R=1

--------
Systime: 1411812919.90956
$GPGGA,101526.000,4110.1592,N,00835.8452,W,1,06,1.6,166.4,M,51.3,M,,0000*42
$GPGSA,A,3,16,21,31,18,27,19,,,,,,,2.6,1.6,2.1*30
$GPRMC,101526.000,A,4110.1592,N,00835.8452,W,0.00,183.86,270914,,,A*7E
GPSD,O=RMC 1411812926.00 0.005 41.169320 -8.597420          ?        ?        ? 183.8600    0.000          ?             ?        ?        ?        ?,R=1

--------
Systime: 1411812920.8905
$GPGGA,101527.000,4110.1592,N,00835.8452,W,1,06,1.6,166.4,M,51.3,M,,0000*43
$GPGSA,A,3,16,21,31,18,27,19,,,,,,,2.6,1.6,2.1*30
$GPRMC,101527.000,A,4110.1592,N,00835.8452,W,0.00,183.86,270914,,,A*7F
GPSD,O=RMC 1411812927.00 0.005 41.169320 -8.597420          ?        ?        ? 183.8600    0.000          ?             ?        ?        ?        ?,R=1

--------
Systime: 1411812922.88913
$GPGGA,101528.000,4110.1592,N,00835.8452,W,1,06,1.6,166.4,M,51.3,M,,0000*4C
$GPGSA,A,3,16,21,31,18,27,19,,,,,,,2.6,1.6,2.1*30
$GPGSV,3,1,12,21,63,083,43,16,56,317,40,27,37,269,47,25,34,207,*7D
$GPGSV,3,2,12,31,31,187,48,15,30,048,,02,27,047,,18,17,121,35*7D
$GPGSV,3,3,12,29,17,064,27,01,09,283,,19,09,255,28,08,08,326,*7F
$GPRMC,101528.000,A,4110.1592,N,00835.8452,W,0.00,183.86,270914,,,A*70
GPSD,O=RMC 1411812928.00 0.005 41.169320 -8.597420          ?        ?        ? 183.8600    0.000          ?             ?        ?        ?        ?,R=1
$GPGGA,101529.000,4110.1592,N,00835.8452,W,1,06,1.6,166.4,M,51.3,M,,0000*4D
$GPGSA,A,3,16,21,31,18,27,19,,,,,,,2.6,1.6,2.1*30
$GPRMC,101529.000,A,4110.1592,N,00835.8452,W,0.00,183.86,270914,,,A*71

--------
Systime: 1411812923.90954
$GPGGA,101530.000,4110.1592,N,00835.8452,W,1,07,1.1,166.4,M,51.3,M,,0000*43
$GPGSA,A,3,16,21,31,18,29,27,19,,,,,,1.9,1.1,1.5*37
$GPRMC,101530.000,A,4110.1592,N,00835.8452,W,0.00,183.86,270914,,,A*79
GPSD,O=RMC 1411812930.00 0.005 41.169320 -8.597420          ?        ?        ? 183.8600    0.000          ?             ?        ?        ?        ?,R=1

--------
Systime: 1411812924.88344
$GPGGA,101531.000,4110.1592,N,00835.8452,W,1,06,1.6,166.4,M,51.3,M,,0000*44
$GPGSA,A,3,16,21,31,18,27,19,,,,,,,2.6,1.6,2.1*30
$GPRMC,101531.000,A,4110.1592,N,00835.8452,W,0.00,183.86,270914,,,A*78
GPSD,O=RMC 1411812931.00 0.005 41.169320 -8.597420          ?        ?        ? 183.8600    0.000          ?             ?        ?        ?        ?,R=1

--------
Systime: 1411812925.88918
$GPGGA,101532.000,4110.1592,N,00835.8452,W,1,06,1.6,166.4,M,51.3,M,,0000*47
$GPGSA,A,3,16,21,31,18,27,19,,,,,,,2.6,1.6,2.1*30
$GPRMC,101532.000,A,4110.1592,N,00835.8452,W,0.00,183.86,270914,,,A*7B
GPSD,O=RMC 1411812932.00 0.005 41.169320 -8.597420          ?        ?        ? 183.8600    0.000          ?             ?        ?        ?        ?,R=1

--------
Systime: 1411812927.87906
$GPGGA,101533.000,4110.1592,N,00835.8452,W,1,06,1.6,166.4,M,51.3,M,,0000*46
$GPGSA,A,3,16,21,31,18,27,19,,,,,,,2.6,1.6,2.1*30
$GPGSV,3,1,12,21,63,083,42,16,56,317,40,27,37,269,47,25,34,207,*7C
$GPGSV,3,2,12,31,31,187,48,15,30,048,,02,27,047,,18,17,121,34*7C
$GPGSV,3,3,12,29,17,064,27,01,09,283,,19,09,255,28,08,08,326,*7F
$GPRMC,101533.000,A,4110.1592,N,00835.8452,W,0.00,183.86,270914,,,A*7A
GPSD,O=RMC 1411812933.00 0.005 41.169320 -8.597420          ?        ?        ? 183.8600    0.000          ?             ?        ?        ?        ?,R=1
$GPGGA,101534.000,4110.1592,N,00835.8452,W,1,06,1.6,166.4,M,51.3,M,,0000*41
$GPGSA,A,3,16,21,31,18,27,19,,,,,,,2.6,1.6,2.1*30
$GPRMC,101534.000,A,4110.1592,N,00835.8452,W,0.00,183.86,270914,,,A*7D

--------
Systime: 1411812928.89744
$GPGGA,101535.000,4110.1592,N,00835.8452,W,1,06,1.6,166.4,M,51.3,M,,0000*40
$GPGSA,A,3,16,21,31,18,27,19,,,,,,,2.6,1.6,2.1*30
$GPRMC,101535.000,A,4110.1592,N,00835.8452,W,0.00,183.86,270914,,,A*7C
GPSD,O=RMC 1411812935.00 0.005 41.169320 -8.597420          ?        ?        ? 183.8600    0.000          ?             ?        ?        ?        ?,R=1

--------
Systime: 1411812929.93007
$GPGGA,101536.000,4110.1592,N,00835.8452,W,1,06,1.6,166.4,M,51.3,M,,0000*43
$GPGSA,A,3,16,21,31,18,27,19,,,,,,,2.6,1.6,2.1*30
$GPRMC,101536.000,A,4110.1592,N,00835.8452,W,0.00,183.86,270914,,,A*7F
GPSD,O=RMC 1411812936.00 0.005 41.169320 -8.597420          ?        ?        ? 183.8600    0.000          ?             ?        ?        ?        ?,R=1

--------
Systime: 1411812930.89454
$GPGGA,101537.000,4110.1592,N,00835.8452,W,1,06,1.6,166.4,M,51.3,M,,0000*42
$GPGSA,A,3,16,21,31,18,27,19,,,,,,,2.6,1.6,2.1*30
$GPRMC,101537.000,A,4110.1592,N,00835.8452,W,0.00,183.86,270914,,,A*7E
GPSD,O=RMC 1411812937.00 0.005 41.169320 -8.597420          ?        ?        ? 183.8600    0.000          ?             ?        ?        ?        ?,R=1

--------
Systime: 1411812932.83222
$GPGGA,101538.000,4110.1592,N,00835.8452,W,1,06,1.6,166.4,M,51.3,M,,0000*4D
$GPGSA,A,3,16,21,31,18,27,19,,,,,,,2.6,1.6,2.1*30
$GPGSV,3,1,12,21,63,083,42,16,56,317,40,27,37,269,47,25,34,207,*7C
$GPGSV,3,2,12,31,31,187,48,15,30,048,,02,27,047,,18,17,121,34*7C
$GPGSV,3,3,12,29,17,064,,01,09,283,,19,09,255,28,08,08,326,*7A
$GPRMC,101538.000,A,4110.1592,N,00835.8452,W,0.00,183.86,270914,,,A*71
GPSD,O=RMC 1411812938.00 0.005 41.169320 -8.597420          ?        ?        ? 183.8600    0.000          ?             ?        ?        ?        ?,R=1
$GPGGA,101539.000,4110.1592,N,00835.8452,W,1,06,1.6,166.4,M,51.3,M,,0000*4C
$GPGSA,A,3,16,21,31,18,27,19,,,,,,,2.6,1.6,2.1*30
$GPRMC,101539.000,A,4110.1592,N,00835.8452,W,0.00,183.86,270914,,,A*70

--------
Systime: 1411812933.84991
GPSD,O=RMC 1411812939.00 0.005 41.169320 -8.597420          ?        ?        ? 183.8600    0.000          ?             ?        ?        ?        ?,R=1
$GPGGA,101540.000,4110.1592,N,00835.8452,W,1,06,1.6,166.4,M,51.3,M,,0000*42
$GPGSA,A,3,16,21,31,18,27,19,,,,,,,2.7,1.6,2.1*31
$GPRMC,101540.000,A,4110.1592,N,00835.8452,W,0.00,183.86,270914,,,A*7E

--------
Systime: 1411812934.88822
$GPGGA,101541.000,4110.1592,N,00835.8452,W,1,06,1.6,166.4,M,51.3,M,,0000*43
$GPGSA,A,3,16,21,31,18,27,19,,,,,,,2.7,1.6,2.1*31
$GPRMC,101541.000,A,4110.1592,N,00835.8452,W,0.00,183.86,270914,,,A*7F
GPSD,O=RMC 1411812941.00 0.005 41.169320 -8.597420          ?        ?        ? 183.8600    0.000          ?             ?        ?        ?        ?,R=1

--------
Systime: 1411812935.91196
$GPGGA,101542.000,4110.1592,N,00835.8452,W,1,06,1.6,166.4,M,51.3,M,,0000*40
$GPGSA,A,3,16,21,31,18,27,19,,,,,,,2.7,1.6,2.1*31
$GPRMC,101542.000,A,4110.1592,N,00835.8452,W,0.00,183.86,270914,,,A*7C
GPSD,O=RMC 1411812942.00 0.005 41.169320 -8.597420          ?        ?        ? 183.8600    0.000          ?             ?        ?        ?        ?,R=1

--------
Systime: 1411812937.88778
$GPGGA,101543.000,4110.1592,N,00835.8452,W,1,06,1.6,166.4,M,51.3,M,,0000*41
$GPGSA,A,3,16,21,31,18,27,19,,,,,,,2.7,1.6,2.1*31
$GPGSV,3,1,12,21,63,083,42,16,56,317,40,27,37,269,47,25,34,207,*7C
$GPGSV,3,2,12,31,31,187,48,15,30,048,,02,27,047,,18,17,121,34*7C
$GPGSV,3,3,12,29,17,064,,01,09,283,,19,09,255,28,08,08,326,*7A
$GPRMC,101543.000,A,4110.1592,N,00835.8452,W,0.00,183.86,270914,,,A*7D
GPSD,O=RMC 1411812943.00 0.005 41.169320 -8.597420          ?        ?        ? 183.8600    0.000          ?             ?        ?        ?        ?,R=1

--------
Systime: 1411812938.92045
$GPGGA,101544.000,4110.1592,N,00835.8452,W,1,06,1.6,166.4,M,51.3,M,,0000*46
$GPGSA,A,3,16,21,31,18,27,19,,,,,,,2.7,1.6,2.1*31
$GPRMC,101544.000,A,4110.1592,N,00835.8452,W,0.00,183.86,270914,,,A*7A
$GPGGA,101545.000,4110.1592,N,00835.8452,W,1,06,1.6,166.4,M,51.3,M,,0000*47
$GPGSA,A,3,16,21,31,18,27,19,,,,,,,2.7,1.6,2.1*31
$GPRMC,101545.000,A,4110.1592,N,00835.8452,W,0.00,183.86,270914,,,A*7B
GPSD,O=RMC 1411812945.00 0.005 41.169320 -8.597420          ?        ?        ? 183.8600    0.000          ?             ?        ?        ?        ?,R=1

--------
Systime: 1411812939.911
$GPGGA,101546.000,4110.1592,N,00835.8452,W,1,06,1.6,166.4,M,51.3,M,,0000*44
$GPGSA,A,3,16,21,31,18,27,19,,,,,,,2.7,1.6,2.1*31
$GPRMC,101546.000,A,4110.1592,N,00835.8452,W,0.00,183.86,270914,,,A*78
GPSD,O=RMC 1411812946.00 0.005 41.169320 -8.597420          ?        ?        ? 183.8600    0.000          ?             ?        ?        ?        ?,R=1

--------
Systime: 1411812940.93318
$GPGGA,101547.000,4110.1592,N,00835.8452,W,1,06,1.6,166.4,M,51.3,M,,0000*45
$GPGSA,A,3,16,21,31,18,27,19,,,,,,,2.7,1.6,2.1*31
$GPRMC,101547.000,A,4110.1592,N,00835.8452,W,0.00,183.86,270914,,,A*79
GPSD,O=RMC 1411812947.00 0.005 41.169320 -8.597420          ?        ?        ? 183.8600    0.000          ?             ?        ?        ?        ?,R=1

--------
Systime: 1411812942.34051
$GPGGA,101548.000,4110.1592,N,00835.8452,W,1,06,1.6,166.4,M,51.3,M,,0000*4A
$GPGSA,A,3,16,21,31,18,27,19,,,,,,,2.7,1.6,2.1*31
$GPGSV,3,1,12,21,63,083,42,16,56,317,40,27,37,269,47,25,34,207,*7C
$GPGSV,3,2,12,31,30,187,47,15,30,048,,02,27,047,,18,17,121,35*73
