Systime: 1411811595.75072
GPSD,O=?,R=1

--------
Systime: 1411811596.42026
$GPGGA,095317.000,4110.7035,N,00835.7037,W,2,05,1.3,129.3,M,51.3,M,1.8,0000*62
$GPGSA,A,3,31,27,21,29,16,,,,,,,,3.0,1.3,2.7*3E
$GPRMC,095317.000,A,4110.7035,N,00835.7037,W,0.14,148.12,270914,,,D*7A
GPSD,O=RMC 1411811597.00 0.005 41.178392 -8.595062          ?        ?        ? 148.1200    0.072          ?             ?        ?        ?        ?,R=1

--------
Systime: 1411811597.86225
$GPGGA,095318.000,4110.7035,N,00835.7037,W,2,04,2.1,129.3,M,51.3,M,1.8,0000*6D
$GPGSA,A,3,31,27,21,29,,,,,,,,,4.1,2.1,3.5*3D
$GPGSV,3,1,12,21,64,106,45,16,46,312,,31,41,190,47,27,30,260,46*76
$GPGSV,3,2,12,29,24,059,35,18,10,128,,23,05,290,,13,04,321,*76
$GPGSV,3,3,12,25,02,117,,19,02,248,,09,01,317,17,05,,027,*77
$GPRMC,095318.000,A,4110.7035,N,00835.7037,W,0.15,148.58,270914,,,D*7A
GPSD,O=RMC 1411811598.00 0.005 41.178392 -8.595062          ?        ?        ? 148.5800    0.077          ?             ?        ?        ?        ?,R=1

--------
Systime: 1411811598.45199
$GPGGA,095319.000,4110.7035,N,00835.7037,W,2,04,2.1,129.3,M,51.3,M,2.8,0000*6F
$GPGSA,A,3,31,27,21,29,,,,,,,,,4.1,2.1,3.5*3D
$GPRMC,095319.000,A,4110.7035,N,00835.7037,W,0.14,148.45,270914,,,D*76
GPSD,O=RMC 1411811599.00 0.005 41.178392 -8.595062          ?        ?        ? 148.4500    0.072          ?             ?        ?        ?        ?,R=1

--------
Systime: 1411811599.43234
$GPGGA,095320.000,4110.7035,N,00835.7037,W,2,04,2.1,129.4,M,51.3,M,1.8,0000*61
$GPGSA,A,3,31,27,21,29,,,,,,,,,4.1,2.1,3.5*3D
$GPRMC,095320.000,A,4110.7035,N,00835.7037,W,0.14,148.30,270914,,,D*7E
GPSD,O=RMC 1411811600.00 0.005 41.178392 -8.595062          ?        ?        ? 148.3000    0.072          ?             ?        ?        ?        ?,R=1

--------
Systime: 1411811600.44218
$GPGGA,095321.000,4110.7035,N,00835.7037,W,2,04,2.1,129.5,M,51.3,M,1.8,0000*61
$GPGSA,A,3,31,27,21,29,,,,,,,,,4.1,2.1,3.5*3D
$GPRMC,095321.000,A,4110.7035,N,00835.7037,W,0.14,148.42,270914,,,D*7A
GPSD,O=RMC 1411811601.00 0.005 41.178392 -8.595062          ?        ?        ? 148.4200    0.072          ?             ?        ?        ?        ?,R=1

--------
Systime: 1411811601.44862
$GPGGA,095322.000,4110.7035,N,00835.7038,W,2,04,2.1,129.6,M,51.3,M,1.8,0000*6E
$GPGSA,A,3,31,27,21,29,,,,,,,,,4.1,2.1,3.5*3D
$GPRMC,095322.000,A,4110.7035,N,00835.7038,W,0.14,148.53,270914,,,D*76
GPSD,O=RMC 1411811602.00 0.005 41.178392 -8.595063          ?        ?        ? 148.5300    0.072          ?             ?        ?        ?        ?,R=1

--------
Systime: 1411811603.38051
$GPGGA,095323.000,4110.7036,N,00835.7038,W,2,04,2.1,129.6,M,51.3,M,2.8,0000*6F
$GPGSA,A,3,31,27,21,29,,,,,,,,,4.1,2.1,3.5*3D
$GPGSV,3,1,12,21,64,106,45,16,46,312,,31,41,190,47,27,30,260,46*76
$GPGSV,3,2,12,29,24,059,31,18,10,128,,23,05,290,23,13,04,321,*73
$GPGSV,3,3,12,25,02,117,,19,02,248,,09,01,317,18,05,,027,*78
$GPRMC,095323.000,A,4110.7036,N,00835.7038,W,0.15,148.91,270914,,,D*7B
GPSD,O=RMC 1411811603.00 0.005 41.178393 -8.595063          ?        ?        ? 148.9100    0.077          ?             ?        ?        ?        ?,R=1
$GPGGA,095324.000,4110.7036,N,00835.7038,W,2,04,2.1,129.7,M,51.3,M,1.8,0000*6A
$GPGSA,A,3,31,27,21,29,,,,,,,,,4.1,2.1,3.5*3D
$GPRMC,095324.000,A,4110.7036,N,00835.7038,W,0.14,147.49,270914,,,D*77

--------
Systime: 1411811604.43206
$GPGGA,095325.000,4110.7036,N,00835.7038,W,2,04,2.1,129.7,M,51.3,M,1.8,0000*6B
$GPGSA,A,3,31,27,21,29,,,,,,,,,4.1,2.1,3.5*3D
$GPRMC,095325.000,A,4110.7036,N,00835.7038,W,0.14,149.37,270914,,,D*71
GPSD,O=RMC 1411811605.00 0.005 41.178393 -8.595063          ?        ?        ? 149.3700    0.072          ?             ?        ?        ?        ?,R=1

--------
Systime: 1411811605.47151
$GPGGA,095326.000,4110.7036,N,00835.7038,W,2,04,2.1,129.8,M,51.3,M,1.8,0000*67
$GPGSA,A,3,31,27,21,29,,,,,,,,,4.1,2.1,3.5*3D
$GPRMC,095326.000,A,4110.7036,N,00835.7038,W,0.15,144.36,270914,,,D*7F
GPSD,O=RMC 1411811606.00 0.005 41.178393 -8.595063          ?        ?        ? 144.3600    0.077          ?             ?        ?        ?        ?,R=1

--------
Systime: 1411811606.45537
$GPGGA,095327.000,4110.7037,N,00835.7039,W,2,04,2.1,129.8,M,51.3,M,2.8,0000*65
$GPGSA,A,3,31,27,21,29,,,,,,,,,4.1,2.1,3.5*3D
$GPRMC,095327.000,A,4110.7037,N,00835.7039,W,0.15,151.63,270914,,,D*7A
GPSD,O=RMC 1411811607.00 0.005 41.178395 -8.595065          ?        ?        ? 151.6300    0.077          ?             ?        ?        ?        ?,R=1

--------
Systime: 1411811608.47062
$GPGGA,095328.000,4110.7037,N,00835.7039,W,2,04,2.1,129.8,M,51.3,M,1.8,0000*69
$GPGSA,A,3,31,27,21,29,,,,,,,,,4.1,2.1,3.5*3D
$GPGSV,3,1,12,21,64,106,44,16,46,312,,31,41,190,47,27,30,260,46*77
$GPGSV,3,2,12,29,24,059,30,18,10,128,,23,05,290,23,13,04,321,*72
$GPGSV,3,3,12,25,02,117,,19,02,248,,09,01,317,17,05,,027,*77
$GPRMC,095328.000,A,4110.7037,N,00835.7039,W,0.14,148.48,270914,,,D*75
$GPGGA,095329.000,4110.7037,N,00835.7039,W,2,04,2.1,129.8,M,51.3,M,1.8,0000*68
$GPGSA,A,3,31,27,21,29,,,,,,,,,4.1,2.1,3.5*3D
$GPRMC,095329.000,A,4110.7037,N,00835.7039,W,0.14,146.99,270914,,,D*76
GPSD,O=RMC 1411811609.00 0.005 41.178395 -8.595065          ?        ?        ? 146.9900    0.072          ?             ?        ?        ?        ?,R=1

--------
Systime: 1411811609.45754
$GPGGA,095330.000,4110.7038,N,00835.7039,W,2,04,2.1,129.9,M,51.3,M,1.8,0000*6E
$GPGSA,A,3,31,27,21,29,,,,,,,,,4.1,2.1,3.5*3D
$GPRMC,095330.000,A,4110.7038,N,00835.7039,W,0.15,146.45,270914,,,D*71
GPSD,O=RMC 1411811610.00 0.005 41.178397 -8.595065          ?        ?        ? 146.4500    0.077          ?             ?        ?        ?        ?,R=1

--------
Systime: 1411811610.46145
$GPGGA,095331.000,4110.7038,N,00835.7039,W,2,04,2.1,129.9,M,51.3,M,2.8,0000*6C
$GPGSA,A,3,31,27,21,29,,,,,,,,,4.1,2.1,3.5*3D
$GPRMC,095331.000,A,4110.7038,N,00835.7039,W,0.15,146.02,270914,,,D*73
GPSD,O=RMC 1411811611.00 0.005 41.178397 -8.595065          ?        ?        ? 146.0200    0.077          ?             ?        ?        ?        ?,R=1

--------
Systime: 1411811611.46625
$GPGGA,095332.000,4110.7038,N,00835.7039,W,2,04,2.1,129.9,M,51.3,M,1.8,0000*6C
$GPGSA,A,3,31,27,21,29,,,,,,,,,4.1,2.1,3.5*3D
$GPRMC,095332.000,A,4110.7038,N,00835.7039,W,0.15,145.57,270914,,,D*73
GPSD,O=RMC 1411811612.00 0.005 41.178397 -8.595065          ?        ?        ? 145.5700    0.077          ?             ?        ?        ?        ?,R=1

--------
Systime: 1411811613.40083
$GPGGA,095333.000,4110.7039,N,00835.7039,W,2,04,2.1,129.8,M,51.3,M,1.8,0000*6D
$GPGSA,A,3,31,27,21,29,,,,,,,,,4.1,2.1,3.5*3D
$GPGSV,3,1,12,21,64,106,44,16,46,312,,31,41,190,47,27,30,260,45*74
$GPGSV,3,2,12,29,24,059,30,18,10,128,,23,05,290,23,13,04,321,*72
$GPGSV,3,3,12,25,02,117,,19,02,248,,09,01,317,17,05,,027,*77
$GPRMC,095333.000,A,4110.7039,N,00835.7039,W,0.15,146.94,270914,,,D*7F
GPSD,O=RMC 1411811613.00 0.005 41.178398 -8.595065          ?        ?        ? 146.9400    0.077          ?             ?        ?        ?        ?,R=1
$GPGGA,095334.000,4110.7039,N,00835.7039,W,2,04,2.1,129.8,M,51.3,M,1.8,0000*6A
$GPGSA,A,3,31,27,21,29,,,,,,,,,4.1,2.1,3.5*3D
$GPRMC,095334.000,A,4110.7039,N,00835.7039,W,0.15,144.81,270914,,,D*7E

--------
Systime: 1411811614.44865
$GPGGA,095335.000,4110.7039,N,00835.7039,W,2,04,2.1,129.8,M,51.3,M,2.8,0000*68
$GPGSA,A,3,31,27,21,29,,,,,,,,,4.1,2.1,3.5*3D
$GPRMC,095335.000,A,4110.7039,N,00835.7039,W,0.15,143.29,270914,,,D*7A
GPSD,O=RMC 1411811615.00 0.005 41.178398 -8.595065          ?        ?        ? 143.2900    0.077          ?             ?        ?        ?        ?,R=1

--------
Systime: 1411811615.47723
$GPGGA,095336.000,4110.7040,N,00835.7039,W,2,04,2.1,129.8,M,51.3,M,1.8,0000*66
$GPGSA,A,3,31,27,21,29,,,,,,,,,4.1,2.1,3.5*3D
$GPRMC,095336.000,A,4110.7040,N,00835.7039,W,0.15,144.28,270914,,,D*71
GPSD,O=RMC 1411811616.00 0.005 41.178400 -8.595065          ?        ?        ? 144.2800    0.077          ?             ?        ?        ?        ?,R=1

--------
Systime: 1411811616.44252
$GPGGA,095337.000,4110.7040,N,00835.7039,W,2,04,2.1,129.7,M,51.3,M,1.8,0000*68
$GPGSA,A,3,31,27,21,29,,,,,,,,,4.1,2.1,3.5*3D
$GPRMC,095337.000,A,4110.7040,N,00835.7039,W,0.15,141.51,270914,,,D*7B
GPSD,O=RMC 1411811617.00 0.005 41.178400 -8.595065          ?        ?        ? 141.5100    0.077          ?             ?        ?        ?        ?,R=1

--------
Systime: 1411811618.39279
$GPGGA,095338.000,4110.7041,N,00835.7039,W,2,04,2.1,129.7,M,51.3,M,1.8,0000*66
$GPGSA,A,3,31,27,21,29,,,,,,,,,4.1,2.1,3.5*3D
$GPGSV,3,1,12,21,64,106,44,16,46,312,,31,41,190,47,27,30,260,45*74
$GPGSV,3,2,12,29,24,059,30,18,10,128,,23,05,290,17,13,04,321,*75
$GPGSV,3,3,12,25,02,117,,19,02,248,,09,01,317,17,05,,027,*77
$GPRMC,095338.000,A,4110.7041,N,00835.7039,W,0.16,144.42,270914,,,D*71
GPSD,O=RMC 1411811618.00 0.005 41.178402 -8.595065          ?        ?        ? 144.4200    0.082          ?             ?        ?        ?        ?,R=1
$GPGGA,095338.000,4110.7041,N,00835.7039,W,2,04,2.1,129.7,M,51.3,M,1.8,0000*66
$GPGSA,A,3,31,27,21,29,,,,,,,,,4.1,2.1,3.5*3D
$GPRMC,095338.000,A,4110.7041,N,00835.7039,W,0.15,143.67,270914,,,D*72

--------
Systime: 1411811619.42514
$GPGGA,095339.000,4110.7041,N,00835.7039,W,2,04,2.1,129.6,M,51.3,M,1.8,0000*66
$GPGSA,A,3,31,27,21,29,,,,,,,,,4.1,2.1,3.5*3D
$GPRMC,095339.000,A,4110.7041,N,00835.7039,W,0.16,144.36,270914,,,D*73
GPSD,O=RMC 1411811619.00 0.005 41.178402 -8.595065          ?        ?        ? 144.3600    0.082          ?             ?        ?        ?        ?,R=1

--------
Systime: 1411811620.42259
$GPGGA,095340.000,4110.7042,N,00835.7039,W,2,04,2.1,129.5,M,51.3,M,1.8,0000*68
$GPGSA,A,3,31,27,21,29,,,,,,,,,4.1,2.1,3.5*3D
$GPRMC,095340.000,A,4110.7042,N,00835.7039,W,0.17,156.75,270914,,,D*7B
GPSD,O=RMC 1411811620.00 0.005 41.178403 -8.595065          ?        ?        ? 156.7500    0.087          ?             ?        ?        ?        ?,R=1

--------
Systime: 1411811621.45828
$GPGGA,095341.000,4110.7042,N,00835.7040,W,2,04,2.1,129.4,M,51.3,M,1.8,0000*66
$GPGSA,A,3,31,27,21,29,,,,,,,,,4.1,2.1,3.5*3D
$GPRMC,095341.000,A,4110.7042,N,00835.7040,W,0.18,159.39,270914,,,D*7C
GPSD,O=RMC 1411811621.00 0.005 41.178403 -8.595067          ?        ?        ? 159.3900    0.093          ?             ?        ?        ?        ?,R=1

--------
Systime: 1411811623.40334
$GPGGA,095342.000,4110.7042,N,00835.7040,W,2,04,2.1,129.3,M,51.3,M,1.8,0000*62
$GPGSA,A,3,31,27,21,29,,,,,,,,,4.1,2.1,3.5*3D
$GPGSV,3,1,12,21,64,106,44,16,46,312,,31,41,190,47,27,30,260,44*75
$GPGSV,3,2,12,29,24,059,31,18,10,128,,23,05,290,20,13,04,321,*70
$GPGSV,3,3,12,25,02,117,,19,02,248,,09,01,317,17,05,,027,*77
$GPRMC,095342.000,A,4110.7042,N,00835.7040,W,0.17,155.23,270914,,,D*77
GPSD,O=RMC 1411811622.00 0.005 41.178403 -8.595067          ?        ?        ? 155.2300    0.087          ?             ?        ?        ?        ?,R=1
$GPGGA,095343.000,4110.7043,N,00835.7040,W,2,04,2.1,129.3,M,51.3,M,1.8,0000*62
$GPGSA,A,3,31,27,21,29,,,,,,,,,4.1,2.1,3.5*3D
$GPRMC,095343.000,A,4110.7043,N,00835.7040,W,0.19,155.71,270914,,,D*7E

--------
Systime: 1411811624.42625
$GPGGA,095344.000,4110.7043,N,00835.7040,W,2,04,2.1,129.2,M,51.3,M,1.8,0000*64
$GPGSA,A,3,31,27,21,29,,,,,,,,,4.1,2.1,3.5*3D
$GPRMC,095344.000,A,4110.7043,N,00835.7040,W,0.17,137.60,270914,,,D*73
GPSD,O=RMC 1411811624.00 0.005 41.178405 -8.595067          ?        ?        ? 137.6000    0.087          ?             ?        ?        ?        ?,R=1

--------
Systime: 1411811625.46645
$GPGGA,095345.000,4110.7044,N,00835.7040,W,2,04,2.1,129.0,M,51.3,M,1.8,0000*60
$GPGSA,A,3,31,27,21,29,,,,,,,,,4.1,2.1,3.5*3D
$GPRMC,095345.000,A,4110.7044,N,00835.7040,W,0.16,137.44,270914,,,D*72
GPSD,O=RMC 1411811625.00 0.005 41.178407 -8.595067          ?        ?        ? 137.4400    0.082          ?             ?        ?        ?        ?,R=1

--------
Systime: 1411811626.42804
$GPGGA,095346.000,4110.7044,N,00835.7039,W,2,04,2.1,128.7,M,51.3,M,2.8,0000*68
$GPGSA,A,3,31,27,21,29,,,,,,,,,4.1,2.1,3.5*3D
$GPRMC,095346.000,A,4110.7044,N,00835.7039,W,0.18,136.70,270914,,,D*77
GPSD,O=RMC 1411811626.00 0.005 41.178407 -8.595065          ?        ?        ? 136.7000    0.093          ?             ?        ?        ?        ?,R=1

--------
Systime: 1411811628.39981
$GPGGA,095347.000,4110.7045,N,00835.7039,W,2,04,2.1,128.5,M,51.3,M,1.8,0000*69
$GPGSA,A,3,31,27,21,29,,,,,,,,,4.1,2.1,3.5*3D
$GPGSV,3,1,12,21,64,106,44,16,47,312,,31,41,190,47,27,30,260,44*74
$GPGSV,3,2,12,29,24,059,32,18,10,128,25,23,05,290,26,13,04,321,*72
$GPGSV,3,3,12,25,02,117,,19,02,248,,09,01,317,17,33,41,190,44*7A
$GPRMC,095347.000,A,4110.7045,N,00835.7039,W,0.18,138.36,270914,,,D*7B
GPSD,O=RMC 1411811627.00 0.005 41.178408 -8.595065          ?        ?        ? 138.3600    0.093          ?             ?        ?        ?        ?,R=1
$GPGGA,095348.000,4110.7045,N,00835.7039,W,2,04,2.1,128.3,M,51.3,M,1.8,0000*60
$GPGSA,A,3,31,27,21,29,,,,,,,,,4.1,2.1,3.5*3D
$GPRMC,095348.000,A,4110.7045,N,00835.7039,W,0.18,136.94,270914,,,D*72

--------
Systime: 1411811629.44286
$GPGGA,095349.000,4110.7045,N,00835.7039,W,2,04,2.1,128.1,M,51.3,M,1.8,0000*63
$GPGSA,A,3,31,27,21,29,,,,,,,,,4.1,2.1,3.5*3D
$GPRMC,095349.000,A,4110.7045,N,00835.7039,W,0.17,134.24,270914,,,D*75
GPSD,O=RMC 1411811629.00 0.005 41.178408 -8.595065          ?        ?        ? 134.2400    0.087          ?             ?        ?        ?        ?,R=1

--------
Systime: 1411811630.35825
$GPGGA,095350.000,4110.7046,N,00835.7039,W,2,04,2.1,127.9,M,51.3,M,2.8,0000*6C
$GPGSA,A,3,31,27,21,29,,,,,,,,,4.1,2.1,3.5*3D
$GPRMC,095350.000,A,4110.7046,N,00835.7039,W,0.18,139.57,270914,,,D*78
GPSD,O=RMC 1411811630.00 0.005 41.178410 -8.595065          ?        ?        ? 139.5700    0.093          ?             ?        ?        ?        ?,R=1

--------
Systime: 1411811631.35233
GPSD,O=RMC 1411811630.00 0.005 41.178410 -8.595065          ?        ?        ? 139.5700    0.093          ?             ?        ?        ?        ?,R=1
$GPGGA,095351.000,4110.7046,N,00835.7039,W,2,04,2.1,127.8,M,51.3,M,1.8,0000*6F
$GPGSA,A,3,31,27,21,29,,,,,,,,,4.1,2.1,3.5*3D
$GPRMC,095351.000,A,4110.7046,N,00835.7039,W,0.18,138.71,270914,,,D*7C

--------
Systime: 1411811632.81137
GPSD,O=RMC 1411811631.00 0.005 41.178410 -8.595065          ?        ?        ? 138.7100    0.093          ?             ?        ?        ?        ?,R=1
$GPGGA,095352.000,4110.7047,N,00835.7039,W,2,04,2.1,127.7,M,51.3,M,1.8,0000*62
$GPGSA,A,3,31,27,21,29,,,,,,,,,4.1,2.1,3.5*3D
$GPGSV,3,1,12,21,64,106,44,16,47,312,,31,41,190,47,27,30,260,43*73
$GPGSV,3,2,12,29,24,059,33,18,10,128,24,23,05,290,26,13,04,321,*72
$GPGSV,3,3,12,25,02,117,,19,02,248,,09,01,317,17,33,41,190,44*7A
$GPRMC,095352.000,A,4110.7047,N,00835.7039,W,0.17,143.28,270914,,,D*71

--------
Systime: 1411811633.40227
$GPGGA,095353.000,4110.7047,N,00835.7039,W,2,04,2.1,127.7,M,51.3,M,1.8,0000*63
$GPGSA,A,3,31,27,21,29,,,,,,,,,4.1,2.1,3.5*3D
$GPRMC,095353.000,A,4110.7047,N,00835.7039,W,0.17,144.20,270914,,,D*7F
GPSD,O=RMC 1411811633.00 0.005 41.178412 -8.595065          ?        ?        ? 144.2000    0.087          ?             ?        ?        ?        ?,R=1

--------
Systime: 1411811634.35931
$GPGGA,095354.000,4110.7047,N,00835.7039,W,2,04,2.1,127.6,M,51.3,M,1.8,0000*65
$GPGSA,A,3,31,27,21,29,,,,,,,,,4.1,2.1,3.5*3D
$GPRMC,095354.000,A,4110.7047,N,00835.7039,W,0.17,144.06,270914,,,D*7C
GPSD,O=RMC 1411811634.00 0.005 41.178412 -8.595065          ?        ?        ? 144.0600    0.087          ?             ?        ?        ?        ?,R=1

--------
Systime: 1411811635.46333
$GPGGA,095355.000,4110.7048,N,00835.7039,W,2,04,2.1,127.6,M,51.3,M,1.8,0000*6B
$GPGSA,A,3,31,27,21,29,,,,,,,,,4.1,2.1,3.5*3D
$GPRMC,095355.000,A,4110.7048,N,00835.7039,W,0.10,114.07,270914,,,D*71
GPSD,O=RMC 1411811635.00 0.005 41.178413 -8.595065          ?        ?        ? 114.0700    0.051          ?             ?        ?        ?        ?,R=1

--------
Systime: 1411811636.37762
$GPGGA,095356.000,4110.7049,N,00835.7039,W,2,04,2.1,127.6,M,51.3,M,1.8,0000*69
$GPGSA,A,3,31,27,21,29,,,,,,,,,4.1,2.1,3.5*3D
$GPRMC,095356.000,A,4110.7049,N,00835.7039,W,0.16,119.19,270914,,,D*77
GPSD,O=RMC 1411811636.00 0.005 41.178415 -8.595065          ?        ?        ? 119.1900    0.082          ?             ?        ?        ?        ?,R=1

--------
Systime: 1411811637.82168
$GPGGA,095357.000,4110.7049,N,00835.7039,W,2,04,2.1,127.6,M,51.3,M,1.8,0000*68
$GPGSA,A,3,31,27,21,29,,,,,,,,,4.1,2.1,3.5*3D
$GPGSV,3,1,12,21,64,106,44,16,47,312,,31,41,190,47,27,30,260,42*72
$GPGSV,3,2,12,29,24,059,34,18,10,128,19,23,05,290,26,13,04,321,*7B
$GPGSV,3,3,12,25,02,117,,19,02,248,,09,01,317,17,33,41,190,44*7A
$GPRMC,095357.000,A,4110.7049,N,00835.7039,W,0.16,116.05,270914,,,D*74
GPSD,O=RMC 1411811637.00 0.005 41.178415 -8.595065          ?        ?        ? 116.0500    0.082          ?             ?        ?        ?        ?,R=1

--------
Systime: 1411811638.37119
$GPGGA,095358.000,4110.7050,N,00835.7040,W,2,04,2.1,127.7,M,51.3,M,2.8,0000*63
$GPGSA,A,3,31,27,21,29,,,,,,,,,4.1,2.1,3.5*3D
$GPRMC,095358.000,A,4110.7050,N,00835.7040,W,0.14,120.76,270914,,,D*7E
GPSD,O=RMC 1411811638.00 0.005 41.178417 -8.595067          ?        ?        ? 120.7600    0.072          ?             ?        ?        ?        ?,R=1

--------
Systime: 1411811639.43714
$GPGGA,095359.000,4110.7050,N,00835.7040,W,2,04,2.1,127.6,M,51.3,M,1.8,0000*60
$GPGSA,A,3,31,27,21,29,,,,,,,,,4.1,2.1,3.5*3D
$GPRMC,095359.000,A,4110.7050,N,00835.7040,W,0.38,155.49,270914,,,D*7F
GPSD,O=RMC 1411811639.00 0.005 41.178417 -8.595067          ?        ?        ? 155.4900    0.195          ?             ?        ?        ?        ?,R=1

--------
Systime: 1411811640.49024
$GPGGA,095400.000,4110.7050,N,00835.7040,W,2,04,2.1,127.6,M,51.3,M,1.8,0000*6B
$GPGSA,A,3,31,27,21,29,,,,,,,,,4.1,2.1,3.5*3D
$GPRMC,095400.000,A,4110.7050,N,00835.7040,W,0.27,165.57,270914,,,D*76
GPSD,O=RMC 1411811640.00 0.005 41.178417 -8.595067          ?        ?        ? 165.5700    0.139          ?             ?        ?        ?        ?,R=1

--------
Systime: 1411811641.45615
$GPGGA,095401.000,4110.7050,N,00835.7040,W,2,04,2.1,127.7,M,51.3,M,1.8,0000*6B
$GPGSA,A,3,31,27,21,29,,,,,,,,,4.0,2.1,3.5*3C
$GPRMC,095401.000,A,4110.7050,N,00835.7040,W,0.26,167.13,270914,,,D*74
GPSD,O=RMC 1411811641.00 0.005 41.178417 -8.595067          ?        ?        ? 167.1300    0.134          ?             ?        ?        ?        ?,R=1

--------
Systime: 1411811643.53908
$GPGGA,095402.000,4110.7050,N,00835.7041,W,2,04,2.1,127.7,M,51.3,M,2.8,0000*6A
$GPGSA,A,3,31,27,21,29,,,,,,,,,4.0,2.1,3.5*3C
$GPGSV,3,1,12,21,64,106,44,16,47,312,,31,41,190,47,27,30,260,42*72
$GPGSV,3,2,12,29,24,059,35,18,10,128,17,23,05,290,26,13,04,321,*74
$GPGSV,3,3,12,25,02,117,,19,02,248,,09,01,317,17,33,41,190,44*7A
$GPRMC,095402.000,A,4110.7050,N,00835.7041,W,0.28,165.39,270914,,,D*72
$GPGGA,095403.000,4110.7050,N,00835.7042,W,2,04,2.1,127.8,M,51.3,M,1.8,0000*64
$GPGSA,A,3,31,27,21,29,,,,,,,,,4.0,2.1,3.5*3C
$GPRMC,095403.000,A,4110.7050,N,00835.7042,W,0.04,85.98,270914,,,D*4A
GPSD,O=RMC 1411811643.00 0.005 41.178417 -8.595070          ?        ?        ?  85.9800    0.021          ?             ?        ?        ?        ?,R=1

--------
Systime: 1411811644.39155
$GPGGA,095404.000,4110.7051,N,00835.7042,W,2,04,2.1,127.9,M,51.3,M,1.8,0000*63
$GPGSA,A,3,31,27,21,29,,,,,,,,,4.0,2.1,3.5*3C
$GPRMC,095404.000,A,4110.7051,N,00835.7042,W,0.16,123.68,270914,,,D*7D
GPSD,O=RMC 1411811644.00 0.005 41.178418 -8.595070          ?        ?        ? 123.6800    0.082          ?             ?        ?        ?        ?,R=1

--------
Systime: 1411811645.46485
$GPGGA,095405.000,4110.7051,N,00835.7042,W,2,04,2.1,128.0,M,51.3,M,1.8,0000*64
$GPGSA,A,3,31,27,21,29,,,,,,,,,4.0,2.1,3.5*3C
$GPRMC,095405.000,A,4110.7051,N,00835.7042,W,0.15,120.12,270914,,,D*71
GPSD,O=RMC 1411811645.00 0.005 41.178418 -8.595070          ?        ?        ? 120.1200    0.077          ?             ?        ?        ?        ?,R=1

--------
Systime: 1411811646.41086
$GPGGA,095406.000,4110.7052,N,00835.7043,W,2,04,2.1,128.2,M,51.3,M,2.8,0000*64
$GPGSA,A,3,31,27,21,29,,,,,,,,,4.0,2.1,3.5*3C
$GPRMC,095406.000,A,4110.7052,N,00835.7043,W,0.15,125.63,270914,,,D*73
GPSD,O=RMC 1411811646.00 0.005 41.178420 -8.595072          ?        ?        ? 125.6300    0.077          ?             ?        ?        ?        ?,R=1

--------
Systime: 1411811647.85572
$GPGGA,095407.000,4110.7052,N,00835.7043,W,2,04,2.1,128.3,M,51.3,M,1.8,0000*67
$GPGSA,A,3,31,27,21,29,,,,,,,,,4.0,2.1,3.5*3C
$GPGSV,3,1,12,21,64,106,44,16,47,312,,31,41,190,47,27,30,260,42*72
$GPGSV,3,2,12,29,24,059,36,18,10,128,17,23,05,290,22,13,04,321,*73
$GPGSV,3,3,12,25,02,117,,19,02,248,,09,01,317,18,33,41,190,44*75
$GPRMC,095407.000,A,4110.7052,N,00835.7043,W,0.20,139.77,270914,,,D*7C
GPSD,O=RMC 1411811647.00 0.005 41.178420 -8.595072          ?        ?        ? 139.7700    0.103          ?             ?        ?        ?        ?,R=1

--------
Systime: 1411811648.37749
$GPGGA,095408.000,4110.7052,N,00835.7044,W,2,04,2.1,128.4,M,51.3,M,1.8,0000*68
$GPGSA,A,3,31,27,21,29,,,,,,,,,4.0,2.1,3.5*3C
$GPRMC,095408.000,A,4110.7052,N,00835.7044,W,0.14,145.07,270914,,,D*7F
GPSD,O=RMC 1411811648.00 0.005 41.178420 -8.595073          ?        ?        ? 145.0700    0.072          ?             ?        ?        ?        ?,R=1

--------
Systime: 1411811649.55802
$GPGGA,095409.000,4110.7053,N,00835.7044,W,2,04,2.1,128.5,M,51.3,M,1.8,0000*69
$GPGSA,A,3,31,27,21,29,,,,,,,,,4.0,2.1,3.5*3C
$GPRMC,095409.000,A,4110.7053,N,00835.7044,W,0.14,148.51,270914,,,D*71
GPSD,O=RMC 1411811649.00 0.005 41.178422 -8.595073          ?        ?        ? 148.5100    0.072          ?             ?        ?        ?        ?,R=1

--------
Systime: 1411811650.48149
$GPGGA,095410.000,4110.7053,N,00835.7045,W,2,04,2.1,128.6,M,51.3,M,2.8,0000*60
$GPGSA,A,3,31,27,21,29,,,,,,,,,4.0,2.1,3.4*3D
$GPRMC,095410.000,A,4110.7053,N,00835.7045,W,0.16,143.50,270914,,,D*70
GPSD,O=RMC 1411811650.00 0.005 41.178422 -8.595075          ?        ?        ? 143.5000    0.082          ?             ?        ?        ?        ?,R=1

--------
Systime: 1411811651.36244
$GPGGA,095411.000,4110.7053,N,00835.7045,W,2,04,2.1,128.8,M,51.3,M,1.8,0000*6C
$GPGSA,A,3,31,27,21,29,,,,,,,,,4.0,2.1,3.4*3D
$GPRMC,095411.000,A,4110.7053,N,00835.7045,W,0.14,146.62,270914,,,D*77
GPSD,O=RMC 1411811651.00 0.005 41.178422 -8.595075          ?        ?        ? 146.6200    0.072          ?             ?        ?        ?        ?,R=1

--------
Systime: 1411811653.39016
$GPGGA,095412.000,4110.7054,N,00835.7046,W,2,04,2.1,128.9,M,51.3,M,1.8,0000*6A
$GPGSA,A,3,31,27,21,29,,,,,,,,,4.0,2.1,3.4*3D
$GPGSV,3,1,12,21,64,106,44,16,47,312,,31,41,190,46,27,30,260,41*70
$GPGSV,3,2,12,29,24,059,36,18,10,128,18,23,05,290,,13,04,321,*7C
$GPGSV,3,3,12,25,02,117,,19,02,248,,09,01,317,18,33,41,190,44*75
$GPRMC,095412.000,A,4110.7054,N,00835.7046,W,0.14,147.91,270914,,,D*7D
$GPGGA,095413.000,4110.7054,N,00835.7047,W,2,04,2.1,129.1,M,51.3,M,1.8,0000*63
$GPGSA,A,3,31,27,21,29,,,,,,,,,4.0,2.1,3.4*3D
$GPRMC,095413.000,A,4110.7054,N,00835.7047,W,0.14,146.27,270914,,,D*71
GPSD,O=RMC 1411811653.00 0.005 41.178423 -8.595078          ?        ?        ? 146.2700    0.072          ?             ?        ?        ?        ?,R=1

--------
Systime: 1411811654.55798
$GPGGA,095414.000,4110.7055,N,00835.7047,W,2,04,2.1,129.2,M,51.3,M,2.8,0000*65
$GPGSA,A,3,31,27,21,29,,,,,,,,,4.0,2.1,3.4*3D
$GPRMC,095414.000,A,4110.7055,N,00835.7047,W,0.16,147.89,270914,,,D*70
GPSD,O=RMC 1411811654.00 0.005 41.178425 -8.595078          ?        ?        ? 147.8900    0.082          ?             ?        ?        ?        ?,R=1

--------
Systime: 1411811655.37675
$GPGGA,095415.000,4110.7055,N,00835.7048,W,2,04,2.1,129.4,M,51.3,M,1.8,0000*6E
$GPGSA,A,3,31,27,21,29,,,,,,,,,4.0,2.1,3.4*3D
$GPRMC,095415.000,A,4110.7055,N,00835.7048,W,0.14,146.98,270914,,,D*7D
GPSD,O=RMC 1411811655.00 0.005 41.178425 -8.595080          ?        ?        ? 146.9800    0.072          ?             ?        ?        ?        ?,R=1

--------
Systime: 1411811656.47273
$GPGGA,095416.000,4110.7055,N,00835.7048,W,2,04,2.1,129.5,M,51.3,M,1.8,0000*6C
$GPGSA,A,3,31,27,21,29,,,,,,,,,4.0,2.1,3.4*3D
$GPRMC,095416.000,A,4110.7055,N,00835.7048,W,0.14,147.00,270914,,,D*7E
GPSD,O=RMC 1411811656.00 0.005 41.178425 -8.595080          ?        ?        ? 147.0000    0.072          ?             ?        ?        ?        ?,R=1

--------
Systime: 1411811658.3991
$GPGGA,095417.000,4110.7056,N,00835.7049,W,2,04,2.1,129.7,M,51.3,M,1.8,0000*6D
$GPGSA,A,3,31,27,21,29,,,,,,,,,4.0,2.1,3.4*3D
$GPGSV,3,1,12,21,64,106,44,16,47,312,,31,41,190,46,27,30,260,41*70
$GPGSV,3,2,12,29,24,059,37,18,10,128,18,23,05,290,22,13,04,321,*7D
$GPGSV,3,3,12,25,02,117,,19,02,248,,09,01,317,,33,41,190,44*7C
$GPRMC,095417.000,A,4110.7056,N,00835.7049,W,0.14,152.48,270914,,,D*75
$GPGGA,095418.000,4110.7056,N,00835.7050,W,2,04,2.1,129.9,M,51.3,M,1.8,0000*64
$GPGSA,A,3,31,27,21,29,,,,,,,,,4.0,2.1,3.4*3D
$GPRMC,095418.000,A,4110.7056,N,00835.7050,W,0.13,142.03,270914,,,D*7B
GPSD,O=RMC 1411811658.00 0.005 41.178427 -8.595083          ?        ?        ? 142.0300    0.067          ?             ?        ?        ?        ?,R=1

--------
Systime: 1411811659.62493
$GPGGA,095419.000,4110.7056,N,00835.7050,W,2,04,2.1,130.0,M,51.3,M,1.8,0000*64
$GPGSA,A,3,31,27,21,29,,,,,,,,,4.0,2.1,3.4*3D
$GPRMC,095419.000,A,4110.7056,N,00835.7050,W,0.16,145.15,270914,,,D*7F
GPSD,O=RMC 1411811659.00 0.005 41.178427 -8.595083          ?        ?        ? 145.1500    0.082          ?             ?        ?        ?        ?,R=1

--------
Systime: 1411811660.43772
$GPGGA,095420.000,4110.7056,N,00835.7050,W,2,05,1.3,129.8,M,51.3,M,1.8,0000*6E
$GPGSA,A,3,31,27,21,29,16,,,,,,,,3.0,1.3,2.7*3E
$GPRMC,095420.000,A,4110.7056,N,00835.7050,W,0.11,141.65,270914,,,D*71
GPSD,O=RMC 1411811660.00 0.005 41.178427 -8.595083          ?        ?        ? 141.6500    0.057          ?             ?        ?        ?        ?,R=1

--------
Systime: 1411811661.52713
$GPGGA,095421.000,4110.7055,N,00835.7049,W,2,05,1.3,129.5,M,51.3,M,1.8,0000*69
$GPGSA,A,3,31,27,21,29,16,,,,,,,,3.0,1.3,2.7*3E
$GPRMC,095421.000,A,4110.7055,N,00835.7049,W,0.12,138.27,270914,,,D*70
GPSD,O=RMC 1411811661.00 0.005 41.178425 -8.595082          ?        ?        ? 138.2700    0.062          ?             ?        ?        ?        ?,R=1

--------
Systime: 1411811663.56582
$GPGGA,095422.000,4110.7054,N,00835.7049,W,2,05,1.3,129.1,M,51.3,M,2.8,0000*6C
$GPGSA,A,3,31,27,21,29,16,,,,,,,,3.0,1.3,2.7*3E
$GPGSV,3,1,12,21,64,106,44,16,47,312,25,31,41,190,46,27,30,260,41*77
$GPGSV,3,2,12,29,24,059,37,18,10,128,17,23,05,290,23,13,04,321,*73
$GPGSV,3,3,12,25,02,117,,19,02,248,,09,01,317,,33,41,190,44*7C
$GPRMC,095422.000,A,4110.7054,N,00835.7049,W,0.10,142.94,270914,,,D*75
$GPGGA,095423.000,4110.7052,N,00835.7048,W,2,05,1.3,128.7,M,51.3,M,1.8,0000*6E
$GPGSA,A,3,31,27,21,29,16,,,,,,,,3.0,1.3,2.7*3E
$GPRMC,095423.000,A,4110.7052,N,00835.7048,W,0.10,130.04,270914,,,D*7F
GPSD,O=RMC 1411811663.00 0.005 41.178420 -8.595080          ?        ?        ? 130.0400    0.051          ?             ?        ?        ?        ?,R=1

--------
Systime: 1411811664.62743
$GPGGA,095424.000,4110.7052,N,00835.7047,W,2,05,1.3,128.4,M,51.3,M,1.8,0000*65
$GPGSA,A,3,31,27,21,29,16,,,,,,,,3.0,1.3,2.7*3E
$GPRMC,095424.000,A,4110.7052,N,00835.7047,W,0.15,145.01,270914,,,D*75
GPSD,O=RMC 1411811664.00 0.005 41.178420 -8.595078          ?        ?        ? 145.0100    0.077          ?             ?        ?        ?        ?,R=1

--------
Systime: 1411811665.38524
$GPGGA,095425.000,4110.7051,N,00835.7047,W,2,05,1.3,128.1,M,51.3,M,1.8,0000*62
$GPGSA,A,3,31,27,21,29,16,,,,,,,,3.0,1.3,2.7*3E
$GPRMC,095425.000,A,4110.7051,N,00835.7047,W,0.18,140.63,270914,,,D*7B
GPSD,O=RMC 1411811665.00 0.005 41.178418 -8.595078          ?        ?        ? 140.6300    0.093          ?             ?        ?        ?        ?,R=1

--------
Systime: 1411811666.45927
$GPGGA,095426.000,4110.7051,N,00835.7047,W,2,05,1.3,128.2,M,51.3,M,2.8,0000*61
$GPGSA,A,3,31,27,21,29,16,,,,,,,,3.0,1.3,2.7*3E
$GPRMC,095426.000,A,4110.7051,N,00835.7047,W,0.14,145.21,270914,,,D*77
GPSD,O=RMC 1411811666.00 0.005 41.178418 -8.595078          ?        ?        ? 145.2100    0.072          ?             ?        ?        ?        ?,R=1

--------
Systime: 1411811668.60756
$GPGGA,095427.000,4110.7050,N,00835.7047,W,2,05,1.3,128.2,M,51.3,M,1.8,0000*62
$GPGSA,A,3,31,27,21,29,16,,,,,,,,3.0,1.3,2.7*3E
$GPGSV,3,1,12,21,64,106,45,16,47,312,25,31,41,190,46,27,30,260,41*76
$GPGSV,3,2,12,29,24,059,38,18,10,128,16,23,05,290,22,13,04,321,*7C
$GPGSV,3,3,12,25,02,117,,19,02,248,,09,01,317,,33,41,190,44*7C
$GPRMC,095427.000,A,4110.7050,N,00835.7047,W,0.16,146.32,270914,,,D*74
$GPGGA,095428.000,4110.7051,N,00835.7049,W,2,05,1.3,128.6,M,51.3,M,1.8,0000*66
$GPGSA,A,3,31,27,21,29,16,,,,,,,,3.0,1.3,2.7*3E
$GPRMC,095428.000,A,4110.7051,N,00835.7049,W,0.14,143.24,270914,,,D*74
GPSD,O=RMC 1411811668.00 0.005 41.178418 -8.595082          ?        ?        ? 143.2400    0.072          ?             ?        ?        ?        ?,R=1

--------
Systime: 1411811669.40204
$GPGGA,095429.000,4110.7051,N,00835.7049,W,2,05,1.3,128.7,M,51.3,M,1.8,0000*66
$GPGSA,A,3,31,27,21,29,16,,,,,,,,3.0,1.3,2.7*3E
$GPRMC,095429.000,A,4110.7051,N,00835.7049,W,0.14,144.22,270914,,,D*74
GPSD,O=RMC 1411811669.00 0.005 41.178418 -8.595082          ?        ?        ? 144.2200    0.072          ?             ?        ?        ?        ?,R=1

--------
Systime: 1411811670.5695
$GPGGA,095430.000,4110.7052,N,00835.7050,W,2,05,1.3,129.0,M,51.3,M,2.8,0000*60
$GPGSA,A,3,31,27,21,29,16,,,,,,,,3.0,1.3,2.7*3E
$GPRMC,095430.000,A,4110.7052,N,00835.7050,W,0.15,148.41,270914,,,D*7F
GPSD,O=RMC 1411811670.00 0.005 41.178420 -8.595083          ?        ?        ? 148.4100    0.077          ?             ?        ?        ?        ?,R=1

--------
Systime: 1411811671.38797
$GPGGA,095431.000,4110.7053,N,00835.7052,W,2,05,1.3,129.7,M,51.3,M,1.8,0000*66
$GPGSA,A,3,31,27,21,29,16,,,,,,,,3.0,1.3,2.7*3E
$GPRMC,095431.000,A,4110.7053,N,00835.7052,W,0.11,143.29,270914,,,D*7C
GPSD,O=RMC 1411811671.00 0.005 41.178422 -8.595087          ?        ?        ? 143.2900    0.057          ?             ?        ?        ?        ?,R=1

--------
Systime: 1411811672.83506
$GPGGA,095432.000,4110.7055,N,00835.7053,W,2,05,1.3,130.2,M,51.3,M,1.8,0000*6F
$GPGSA,A,3,31,27,21,29,16,,,,,,,,3.0,1.3,2.7*3E
$GPGSV,3,1,12,21,64,106,45,16,47,312,25,31,41,190,46,27,30,260,41*76
$GPGSV,3,2,12,29,24,059,38,18,10,128,,23,05,290,22,13,04,321,*7B
$GPGSV,3,3,12,25,02,117,,19,02,248,,09,01,317,,33,41,190,44*7C
$GPRMC,095432.000,A,4110.7055,N,00835.7053,W,0.17,154.63,270914,,,D*76
GPSD,O=RMC 1411811672.00 0.005 41.178425 -8.595088          ?        ?        ? 154.6300    0.087          ?             ?        ?        ?        ?,R=1

--------
Systime: 1411811673.38639
$GPGGA,095433.000,4110.7056,N,00835.7055,W,2,05,1.3,130.8,M,51.3,M,1.8,0000*61
$GPGSA,A,3,31,27,21,29,16,,,,,,,,3.0,1.3,2.7*3E
$GPRMC,095433.000,A,4110.7056,N,00835.7055,W,0.13,150.21,270914,,,D*74
GPSD,O=RMC 1411811673.00 0.005 41.178427 -8.595092          ?        ?        ? 150.2100    0.067          ?             ?        ?        ?        ?,R=1

--------
Systime: 1411811674.38488
$GPGGA,095434.000,4110.7057,N,00835.7057,W,2,05,1.3,131.5,M,51.3,M,2.8,0000*6A
$GPGSA,A,3,31,27,21,29,16,,,,,,,,3.0,1.3,2.7*3E
$GPRMC,095434.000,A,4110.7057,N,00835.7057,W,0.12,152.70,270914,,,D*77
GPSD,O=RMC 1411811674.00 0.005 41.178428 -8.595095          ?        ?        ? 152.7000    0.062          ?             ?        ?        ?        ?,R=1

--------
Systime: 1411811675.38847
$GPGGA,095435.000,4110.7059,N,00835.7059,W,2,05,1.3,132.3,M,51.3,M,1.8,0000*6D
$GPGSA,A,3,31,27,21,29,16,,,,,,,,3.0,1.3,2.7*3E
$GPRMC,095435.000,A,4110.7059,N,00835.7059,W,0.11,154.65,270914,,,D*77
GPSD,O=RMC 1411811675.00 0.005 41.178432 -8.595098          ?        ?        ? 154.6500    0.057          ?             ?        ?        ?        ?,R=1

--------
Systime: 1411811676.38883
$GPGGA,095436.000,4110.7060,N,00835.7061,W,2,05,1.3,132.9,M,51.3,M,1.8,0000*65
$GPGSA,A,3,31,27,21,29,16,,,,,,,,3.0,1.3,2.7*3E
$GPRMC,095436.000,A,4110.7060,N,00835.7061,W,0.12,156.53,270914,,,D*71
GPSD,O=RMC 1411811676.00 0.005 41.178433 -8.595102          ?        ?        ? 156.5300    0.062          ?             ?        ?        ?        ?,R=1

--------
Systime: 1411811677.83683
$GPGGA,095437.000,4110.7061,N,00835.7062,W,2,05,1.3,133.4,M,51.3,M,1.8,0000*6A
$GPGSA,A,3,31,27,21,29,16,,,,,,,,3.0,1.3,2.7*3E
$GPGSV,3,1,12,21,64,106,45,16,47,312,25,31,41,190,46,27,30,260,41*76
$GPGSV,3,2,12,29,24,059,37,18,10,128,,23,05,290,21,13,04,321,*77
$GPGSV,3,3,12,25,02,117,,19,02,248,,09,01,317,,33,41,190,44*7C
$GPRMC,095437.000,A,4110.7061,N,00835.7062,W,0.13,158.39,270914,,,D*71
GPSD,O=RMC 1411811677.00 0.005 41.178435 -8.595103          ?        ?        ? 158.3900    0.067          ?             ?        ?        ?        ?,R=1

--------
Systime: 1411811678.38529
$GPGGA,095438.000,4110.7062,N,00835.7063,W,2,05,1.3,133.9,M,51.3,M,2.8,0000*69
$GPGSA,A,3,31,27,21,29,16,,,,,,,,3.0,1.3,2.7*3E
$GPRMC,095438.000,A,4110.7062,N,00835.7063,W,0.11,156.54,270914,,,D*7B
GPSD,O=RMC 1411811678.00 0.005 41.178437 -8.595105          ?        ?        ? 156.5400    0.057          ?             ?        ?        ?        ?,R=1

--------
Systime: 1411811679.43563
$GPGGA,095439.000,4110.7063,N,00835.7065,W,2,05,1.3,134.4,M,51.3,M,1.8,0000*66
$GPGSA,A,3,31,27,21,29,16,,,,,,,,3.0,1.3,2.7*3E
$GPRMC,095439.000,A,4110.7063,N,00835.7065,W,0.10,154.84,270914,,,D*73
GPSD,O=RMC 1411811679.00 0.005 41.178438 -8.595108          ?        ?        ? 154.8400    0.051          ?             ?        ?        ?        ?,R=1

--------
Systime: 1411811680.39222
$GPGGA,095440.000,4110.7064,N,00835.7066,W,2,05,1.3,134.7,M,51.3,M,1.8,0000*6F
$GPGSA,A,3,31,27,21,29,16,,,,,,,,3.0,1.3,2.7*3E
$GPRMC,095440.000,A,4110.7064,N,00835.7066,W,0.13,157.51,270914,,,D*71
GPSD,O=RMC 1411811680.00 0.005 41.178440 -8.595110          ?        ?        ? 157.5100    0.067          ?             ?        ?        ?        ?,R=1

--------
Systime: 1411811681.45975
$GPGGA,095441.000,4110.7065,N,00835.7067,W,2,05,1.3,135.1,M,51.3,M,1.8,0000*69
$GPGSA,A,3,31,27,21,29,16,,,,,,,,3.0,1.3,2.7*3E
$GPRMC,095441.000,A,4110.7065,N,00835.7067,W,0.12,155.36,270914,,,D*72
GPSD,O=RMC 1411811681.00 0.005 41.178442 -8.595112          ?        ?        ? 155.3600    0.062          ?             ?        ?        ?        ?,R=1

--------
Systime: 1411811682.84514
$GPGGA,095442.000,4110.7065,N,00835.7067,W,2,05,1.3,135.3,M,51.3,M,2.8,0000*6B
$GPGSA,A,3,31,27,21,29,16,,,,,,,,3.0,1.3,2.7*3E
$GPGSV,3,1,12,21,64,106,45,16,47,312,25,31,41,190,45,27,30,260,41*75
$GPGSV,3,2,12,29,24,059,37,18,10,128,24,23,05,290,,13,04,321,*72
$GPGSV,3,3,12,25,02,117,,19,02,248,,09,01,317,,33,41,190,44*7C
$GPRMC,095442.000,A,4110.7065,N,00835.7067,W,0.12,156.99,270914,,,D*77
GPSD,O=RMC 1411811682.00 0.005 41.178442 -8.595112          ?        ?        ? 156.9900    0.062          ?             ?        ?        ?        ?,R=1

--------
Systime: 1411811683.40733
$GPGGA,095443.000,4110.7065,N,00835.7068,W,2,05,1.3,135.5,M,51.3,M,1.8,0000*60
$GPGSA,A,3,31,27,21,29,16,,,,,,,,3.0,1.3,2.7*3E
$GPRMC,095443.000,A,4110.7065,N,00835.7068,W,0.10,148.32,270914,,,D*75
GPSD,O=RMC 1411811683.00 0.005 41.178442 -8.595113          ?        ?        ? 148.3200    0.051          ?             ?        ?        ?        ?,R=1

--------
Systime: 1411811684.38104
$GPGGA,095444.000,4110.7065,N,00835.7069,W,2,05,1.3,135.7,M,51.3,M,1.8,0000*64
$GPGSA,A,3,31,27,21,29,16,,,,,,,,3.0,1.3,2.7*3E
$GPRMC,095444.000,A,4110.7065,N,00835.7069,W,0.13,153.02,270914,,,D*79
GPSD,O=RMC 1411811684.00 0.005 41.178442 -8.595115          ?        ?        ? 153.0200    0.067          ?             ?        ?        ?        ?,R=1

--------
Systime: 1411811685.44462
$GPGGA,095445.000,4110.7065,N,00835.7069,W,2,05,1.3,135.8,M,51.3,M,1.8,0000*6A
$GPGSA,A,3,31,27,21,29,16,,,,,,,,3.0,1.3,2.7*3E
$GPRMC,095445.000,A,4110.7065,N,00835.7069,W,0.13,153.12,270914,,,D*79
GPSD,O=RMC 1411811685.00 0.005 41.178442 -8.595115          ?        ?        ? 153.1200    0.067          ?             ?        ?        ?        ?,R=1

--------
Systime: 1411811686.43569
$GPGGA,095446.000,4110.7064,N,00835.7069,W,2,05,1.3,135.6,M,51.3,M,2.8,0000*65
$GPGSA,A,3,31,27,21,29,16,,,,,,,,3.0,1.3,2.7*3E
$GPRMC,095446.000,A,4110.7064,N,00835.7069,W,0.19,153.27,270914,,,D*77
GPSD,O=RMC 1411811686.00 0.005 41.178440 -8.595115          ?        ?        ? 153.2700    0.098          ?             ?        ?        ?        ?,R=1

--------
Systime: 1411811687.10344
$GPGGA,095447.000,4110.7064,N,00835.7069,W,2,05,1.3,135.6,M,51.3,M,1.8,0000*67

--------
Systime: 1411811688.37976
GPSD,O=GGA 1411811687.00 0.005 41.178440 -8.595115  135.60        ?        ?             ?            ?  0.000             ?        ?        ?        ?,R=1
$GPGSA,A,3,31,27,21,29,16,,,,,,,,3.0,1.3,2.7*3E
$GPGSV,3,1,12,21,64,106,44,16,47,312,26,31,41,190,45,27,30,260,41*77
$GPGSV,3,2,12,29,24,059,36,18,10,128,23,23,05,290,,13,04,321,*74
$GPGSV,3,3,12,25,02,117,,19,02,248,,09,01,317,,33,41,190,44*7C
$GPRMC,095447.000,A,4110.7064,N,00835.7069,W,0.13,147.51,270914,,,D*78
GPSD,O=RMC 1411811687.00 0.005 41.178440 -8.595115          ?        ?        ? 147.5100    0.067          ?             ?        ?        ?        ?,R=1
$GPGGA,095448.000,4110.7064,N,00835.7069,W,2,05,1.3,135.7,M,51.3,M,1.8,0000*69
$GPGSA,A,3,31,27,21,29,16,,,,,,,,3.0,1.3,2.7*3E
$GPRMC,095448.000,A,4110.7064,N,00835.7069,W,0.13,147.09,270914,,,D*7A

--------
Systime: 1411811689.42972
$GPGGA,095449.000,4110.7063,N,00835.7069,W,2,05,1.3,135.7,M,51.3,M,1.8,0000*6F
$GPGSA,A,3,31,27,21,29,16,,,,,,,,3.0,1.3,2.7*3E
$GPRMC,095449.000,A,4110.7063,N,00835.7069,W,0.14,149.27,270914,,,D*79
GPSD,O=RMC 1411811689.00 0.005 41.178438 -8.595115          ?        ?        ? 149.2700    0.072          ?             ?        ?        ?        ?,R=1

--------
Systime: 1411811690.45468
$GPGGA,095450.000,4110.7063,N,00835.7069,W,2,05,1.3,135.8,M,51.3,M,2.8,0000*6B
$GPGSA,A,3,31,27,21,29,16,,,,,,,,3.0,1.3,2.7*3E
$GPRMC,095450.000,A,4110.7063,N,00835.7069,W,0.15,148.62,270914,,,D*70
GPSD,O=RMC 1411811690.00 0.005 41.178438 -8.595115          ?        ?        ? 148.6200    0.077          ?             ?        ?        ?        ?,R=1

--------
Systime: 1411811691.45562
$GPGGA,095451.000,4110.7063,N,00835.7069,W,2,05,1.3,135.8,M,51.3,M,1.8,0000*69
$GPGSA,A,3,31,27,21,29,16,,,,,,,,3.0,1.3,2.7*3E
$GPRMC,095451.000,A,4110.7063,N,00835.7069,W,0.15,149.98,270914,,,D*75
GPSD,O=RMC 1411811691.00 0.005 41.178438 -8.595115          ?        ?        ? 149.9800    0.077          ?             ?        ?        ?        ?,R=1

--------
Systime: 1411811692.46142
$GPGGA,095452.000,4110.7062,N,00835.7070,W,2,05,1.3,135.9,M,51.3,M,1.8,0000*62
$GPGSA,A,3,31,27,21,29,16,,,,,,,,3.0,1.3,2.7*3E
$GPGSV,3,1,12,21,64,106,45,16,47,312,27,31,41,190,44,27,30,260,41*76

--------
Systime: 1411811693.44532
GPSD,O=GSV 1411811692.00 0.005 41.178437 -8.595117  135.90  2.60  5.40             ?            ?  0.000 165.5993  5.20        ? 3,R=1
$GPGSV,3,2,12,29,24,059,35,18,10,128,23,23,05,290,,13,04,321,*77
$GPGSV,3,3,12,25,02,117,,19,02,248,19,09,01,317,,33,41,190,44*74
$GPRMC,095452.000,A,4110.7062,N,00835.7070,W,0.14,151.55,270914,,,D*76
$GPGGA,095453.000,4110.7062,N,00835.7070,W,2,05,1.3,135.9,M,51.3,M,1.8,0000*63
$GPGSA,A,3,31,27,21,29,16,,,,,,,,3.0,1.3,2.7*3E
$GPRMC,095453.000,A,4110.7062,N,00835.7070,W,0.14,144.00,270914,,,D*73
GPSD,O=RMC 1411811693.00 0.005 41.178437 -8.595117          ?        ?        ? 144.0000    0.072          ?             ?        ?        ?        ?,R=1

--------
Systime: 1411811694.44926
$GPGGA,095454.000,4110.7061,N,00835.7070,W,2,05,1.3,135.9,M,51.3,M,2.8,0000*64
$GPGSA,A,3,31,27,21,29,16,,,,,,,,3.0,1.3,2.7*3E
$GPRMC,095454.000,A,4110.7061,N,00835.7070,W,0.14,149.27,270914,,,D*7F
GPSD,O=RMC 1411811694.00 0.005 41.178435 -8.595117          ?        ?        ? 149.2700    0.072          ?             ?        ?        ?        ?,R=1

--------
Systime: 1411811695.3761
$GPGGA,095455.000,4110.7061,N,00835.7070,W,2,05,1.3,135.9,M,51.3,M,1.8,0000*66
$GPGSA,A,3,31,27,21,29,16,,,,,,,,3.0,1.3,2.7*3E
$GPRMC,095455.000,A,4110.7061,N,00835.7070,W,0.16,147.34,270914,,,D*70
GPSD,O=RMC 1411811695.00 0.005 41.178435 -8.595117          ?        ?        ? 147.3400    0.082          ?             ?        ?        ?        ?,R=1

--------
Systime: 1411811696.41841
GPSD,O=RMC 1411811695.00 0.005 41.178435 -8.595117          ?        ?        ? 147.3400    0.082          ?             ?        ?        ?        ?,R=1
$GPGGA,095456.000,4110.7060,N,00835.7070,W,2,05,1.3,135.9,M,51.3,M,1.8,0000*64
$GPGSA,A,3,31,27,21,29,16,,,,,,,,3.0,1.3,2.7*3E
$GPRMC,095456.000,A,4110.7060,N,00835.7070,W,0.16,165.98,270914,,,D*74

--------
Systime: 1411811698.38877
$GPGGA,095457.000,4110.7060,N,00835.7070,W,2,05,1.3,135.9,M,51.3,M,1.8,0000*65
$GPGSA,A,3,31,27,21,29,16,,,,,,,,3.0,1.3,2.7*3E
$GPGSV,3,1,12,21,64,106,45,16,47,312,27,31,41,190,44,27,30,260,41*76
$GPGSV,3,2,12,29,24,059,34,18,10,128,23,23,05,290,,13,04,321,*76
$GPGSV,3,3,12,25,02,117,,19,02,248,17,09,01,317,,33,41,190,44*7A
$GPRMC,095457.000,A,4110.7060,N,00835.7070,W,0.16,165.17,270914,,,D*72
$GPGGA,095458.000,4110.7059,N,00835.7070,W,2,05,1.3,135.8,M,51.3,M,1.8,0000*61
$GPGSA,A,3,31,27,21,29,16,,,,,,,,3.0,1.3,2.7*3E
$GPRMC,095458.000,A,4110.7059,N,00835.7070,W,0.18,162.21,270914,,,D*7B
GPSD,O=RMC 1411811698.00 0.005 41.178432 -8.595117          ?        ?        ? 162.2100    0.093          ?             ?        ?        ?        ?,R=1

--------
Systime: 1411811699.41327
$GPGGA,095459.000,4110.7059,N,00835.7070,W,2,05,1.3,135.8,M,51.3,M,1.8,0000*60
$GPGSA,A,3,31,27,21,29,16,,,,,,,,3.0,1.3,2.7*3E
$GPRMC,095459.000,A,4110.7059,N,00835.7070,W,0.16,162.76,270914,,,D*76
GPSD,O=RMC 1411811699.00 0.005 41.178432 -8.595117          ?        ?        ? 162.7600    0.082          ?             ?        ?        ?        ?,R=1

--------
Systime: 1411811700.45999
$GPGGA,095500.000,4110.7058,N,00835.7070,W,2,05,1.3,135.9,M,51.3,M,1.8,0000*6D
$GPGSA,A,3,31,27,21,29,16,,,,,,,,3.0,1.3,2.7*3E
$GPRMC,095500.000,A,4110.7058,N,00835.7070,W,0.16,123.46,270914,,,D*7C
GPSD,O=RMC 1411811700.00 0.005 41.178430 -8.595117          ?        ?        ? 123.4600    0.082          ?             ?        ?        ?        ?,R=1

--------
Systime: 1411811701.43778
$GPGGA,095501.000,4110.7058,N,00835.7070,W,2,05,1.3,136.0,M,51.3,M,1.8,0000*66
$GPGSA,A,3,31,27,21,29,16,,,,,,,,3.0,1.3,2.7*3E
$GPRMC,095501.000,A,4110.7058,N,00835.7070,W,0.14,121.62,270914,,,D*7B
GPSD,O=RMC 1411811701.00 0.005 41.178430 -8.595117          ?        ?        ? 121.6200    0.072          ?             ?        ?        ?        ?,R=1

--------
Systime: 1411811702.60799
$GPGGA,095502.000,4110.7058,N,00835.7070,W,2,05,1.3,136.1,M,51.3,M,1.8,0000*64
$GPGSA,A,3,31,27,21,29,16,,,,,,,,3.0,1.3,2.7*3E
$GPGSV,3,1,12,21,64,106,45,16,47,312,27,31,41,190,43,27,30,260,42*72
$GPGSV,3,2,12,29,24,059,33,18,10,128,22,23,05,290,,13,04,321,*70

--------
Systime: 1411811703.43972
GPSD,O=GSV 1411811702.00 0.005 41.178430 -8.595117  136.10  2.60  5.40             ?            ?  0.000 174.0950  5.20        ? 3,R=1
$GPGSV,3,3,12,25,02,117,,19,02,248,,09,01,317,,33,41,190,44*7C
$GPRMC,095502.000,A,4110.7058,N,00835.7070,W,0.14,133.56,270914,,,D*7C
$GPGGA,095503.000,4110.7057,N,00835.7071,W,2,05,1.3,136.2,M,51.3,M,1.8,0000*68
$GPGSA,A,3,31,27,21,29,16,,,,,,,,3.0,1.3,2.7*3E
$GPRMC,095503.000,A,4110.7057,N,00835.7071,W,0.14,129.89,270914,,,D*7A
GPSD,O=RMC 1411811703.00 0.005 41.178428 -8.595118          ?        ?        ? 129.8900    0.072          ?             ?        ?        ?        ?,R=1

--------
Systime: 1411811704.4503
$GPGGA,095504.000,4110.7057,N,00835.7071,W,2,05,1.3,136.4,M,51.3,M,1.8,0000*69
$GPGSA,A,3,31,27,21,29,16,,,,,,,,3.0,1.3,2.7*3E
$GPRMC,095504.000,A,4110.7057,N,00835.7071,W,0.15,158.86,270914,,,D*75
GPSD,O=RMC 1411811704.00 0.005 41.178428 -8.595118          ?        ?        ? 158.8600    0.077          ?             ?        ?        ?        ?,R=1

--------
Systime: 1411811705.38563
GPSD,O=RMC 1411811704.00 0.005 41.178428 -8.595118          ?        ?        ? 158.8600    0.077          ?             ?        ?        ?        ?,R=1
$GPGGA,095505.000,4110.7057,N,00835.7071,W,2,05,1.3,136.5,M,51.3,M,1.8,0000*69
$GPGSA,A,3,31,27,21,29,16,,,,,,,,3.0,1.3,2.7*3E

--------
Systime: 1411811706.39099
$GPRMC,095505.000,A,4110.7057,N,00835.7071,W,0.15,159.91,270914,,,D*73
$GPGGA,095506.000,4110.7056,N,00835.7071,W,2,05,1.3,136.6,M,51.3,M,2.8,0000*6B
$GPGSA,A,3,31,27,21,29,16,,,,,,,,3.0,1.3,2.7*3E
$GPRMC,095506.000,A,4110.7056,N,00835.7071,W,0.13,162.29,270914,,,D*7C
GPSD,O=RMC 1411811706.00 0.005 41.178427 -8.595118          ?        ?        ? 162.2900    0.067          ?             ?        ?        ?        ?,R=1

--------
Systime: 1411811707.83254
$GPGGA,095507.000,4110.7056,N,00835.7072,W,2,05,1.3,136.7,M,51.3,M,1.8,0000*6B
$GPGSA,A,3,31,27,21,29,16,,,,,,,,3.0,1.3,2.7*3E
$GPGSV,3,1,12,21,64,106,45,16,47,312,27,31,41,190,43,27,30,260,42*72
$GPGSV,3,2,12,29,24,059,32,18,10,128,21,23,05,290,,13,04,321,*72
$GPGSV,3,3,12,25,02,117,,19,02,248,,09,01,317,,33,41,190,44*7C
$GPRMC,095507.000,A,4110.7056,N,00835.7072,W,0.15,159.42,270914,,,D*7D
GPSD,O=RMC 1411811707.00 0.005 41.178427 -8.595120          ?        ?        ? 159.4200    0.077          ?             ?        ?        ?        ?,R=1

--------
Systime: 1411811708.41035
$GPGGA,095508.000,4110.7055,N,00835.7072,W,2,05,1.3,136.7,M,51.3,M,1.8,0000*67
$GPGSA,A,3,31,27,21,29,16,,,,,,,,3.0,1.3,2.7*3E
$GPRMC,095508.000,A,4110.7055,N,00835.7072,W,0.14,153.33,270914,,,D*7C
GPSD,O=RMC 1411811708.00 0.005 41.178425 -8.595120          ?        ?        ? 153.3300    0.072          ?             ?        ?        ?        ?,R=1

--------
Systime: 1411811709.37733
$GPGGA,095509.000,4110.7055,N,00835.7071,W,2,05,1.3,136.6,M,51.3,M,1.8,0000*64
$GPGSA,A,3,31,27,21,29,16,,,,,,,,3.0,1.3,2.7*3E
$GPRMC,095509.000,A,4110.7055,N,00835.7071,W,0.14,151.02,270914,,,D*7E
GPSD,O=RMC 1411811709.00 0.005 41.178425 -8.595118          ?        ?        ? 151.0200    0.072          ?             ?        ?        ?        ?,R=1

--------
Systime: 1411811710.3974
GPSD,O=RMC 1411811709.00 0.005 41.178425 -8.595118          ?        ?        ? 151.0200    0.072          ?             ?        ?        ?        ?,R=1
$GPGGA,095510.000,4110.7054,N,00835.7071,W,2,05,1.3,136.6,M,51.3,M,2.8,0000*6E
$GPGSA,A,3,31,27,21,29,16,,,,,,,,3.0,1.3,2.7*3E
$GPRMC,095510.000,A,4110.7054,N,00835.7071,W,0.15,156.95,270914,,,D*7F

--------
Systime: 1411811711.44067
$GPGGA,095511.000,4110.7054,N,00835.7072,W,2,05,1.3,136.7,M,51.3,M,1.8,0000*6E
$GPGSA,A,3,31,27,21,29,16,,,,,,,,3.0,1.3,2.7*3E
$GPRMC,095511.000,A,4110.7054,N,00835.7072,W,0.14,154.70,270914,,,D*75
GPSD,O=RMC 1411811711.00 0.005 41.178423 -8.595120          ?        ?        ? 154.7000    0.072          ?             ?        ?        ?        ?,R=1

--------
Systime: 1411811712.24847
$GPGGA,095512.000,4110.7053,N,00835.7072,W,2,05,1.3,136.7,M,51.3,M,1.8,0000*6A
$GPGSA,A,3,31,27,21,29,16,,,,,,,,3.0,1.3,2.7*3E

--------
Systime: 1411811713.37026
GPSD,O=GSA 1411811712.00 0.005 41.178422 -8.595120  136.70  2.60  5.40             ?            ?  0.000 172.7711  5.20        ? 3,R=1
$GPGSV,3,1,12,21,64,106,45,16,47,312,27,31,41,190,42,27,30,260,42*73
$GPGSV,3,2,12,29,24,059,31,18,10,128,14,23,05,290,,13,04,321,*77
$GPGSV,3,3,12,25,02,117,,19,02,248,,09,01,317,,33,41,190,44*7C
$GPRMC,095512.000,A,4110.7053,N,00835.7072,W,0.14,151.67,270914,,,D*72
GPSD,O=RMC 1411811712.00 0.005 41.178422 -8.595120          ?        ?        ? 151.6700    0.072          ?             ?        ?        ?        ?,R=1
$GPGGA,095513.000,4110.7053,N,00835.7071,W,2,05,1.3,136.7,M,51.3,M,1.8,0000*68
$GPGSA,A,3,31,27,21,29,16,,,,,,,,3.0,1.3,2.7*3E
$GPRMC,095513.000,A,4110.7053,N,00835.7071,W,0.14,145.11,270914,,,D*74

--------
Systime: 1411811714.37328
GPSD,O=RMC 1411811713.00 0.005 41.178422 -8.595118          ?        ?        ? 145.1100    0.072          ?             ?        ?        ?        ?,R=1
$GPGGA,095514.000,4110.7052,N,00835.7071,W,2,05,1.3,136.7,M,51.3,M,1.8,0000*6E
$GPGSA,A,3,31,27,21,29,16,,,,,,,,3.0,1.3,2.7*3E
$GPRMC,095514.000,A,4110.7052,N,00835.7071,W,0.15,154.29,270914,,,D*78

--------
Systime: 1411811715.47223
$GPGGA,095515.000,4110.7052,N,00835.7071,W,2,05,1.3,136.6,M,51.3,M,1.8,0000*6E
$GPGSA,A,3,31,27,21,29,16,,,,,,,,3.0,1.3,2.7*3E
$GPRMC,095515.000,A,4110.7052,N,00835.7071,W,0.15,150.82,270914,,,D*7C
GPSD,O=RMC 1411811715.00 0.005 41.178420 -8.595118          ?        ?        ? 150.8200    0.077          ?             ?        ?        ?        ?,R=1

--------
Systime: 1411811716.23246
$GPGGA,095516.000,4110.7051,N,00835.7071,W,2,05,1.3,136.5,M,51.3,M,1.8,0000*6D
$GPGSA,A,3,31,27,21,29,16,,,,,,,,3.0,1.3,2.7*3E

--------
Systime: 1411811716.77324
GPSD,O=GSA 1411811716.00 0.005 41.178418 -8.595118  136.50  2.60  5.40             ?            ?  0.000 168.9771  5.20        ? 3,R=1
$GPRMC,095516.000,A,4110.7051,N,00835.7071,W,0.14,150.40,270914,,,D*73
GPSD,O=RMC 1411811716.00 0.005 41.178418 -8.595118          ?        ?        ? 150.4000    0.072          ?             ?        ?        ?        ?,R=1

--------
Systime: 1411811717.66756
$GPGGA,095517.000,4110.7051,N,00835.7071,W,2,05,1.3,136.4,M,51.3,M,1.8,0000*6D
$GPGSA,A,3,31,27,21,29,16,,,,,,,,3.0,1.3,2.7*3E
$GPGSV,3,1,12,21,64,106,45,16,47,312,28,31,41,190,42,27,30,260,42*7C
$GPGSV,3,2,12,29,24,059,27,18,10,128,16,23,05,290,24,13,04,321,*74
$GPGSV,3,3,12,25,02,117,,19,02,248,,09,01,317,,33,41,190,44*7C

--------
Systime: 1411811718.43735
GPSD,O=GSV 1411811717.00 0.005 41.178418 -8.595118  136.40  2.60  5.40             ?            ?  0.000             ?  5.20        ? 3,R=1
$GPRMC,095517.000,A,4110.7051,N,00835.7071,W,0.15,147.17,270914,,,D*77
$GPGGA,095518.000,4110.7050,N,00835.7071,W,2,05,1.3,136.3,M,51.3,M,2.8,0000*67
$GPGSA,A,3,31,27,21,29,16,,,,,,,,3.0,1.3,2.7*3E
$GPRMC,095518.000,A,4110.7050,N,00835.7071,W,0.15,148.86,270914,,,D*7E
GPSD,O=RMC 1411811718.00 0.005 41.178417 -8.595118          ?        ?        ? 148.8600    0.077          ?             ?        ?        ?        ?,R=1

--------
Systime: 1411811719.41916
$GPGGA,095519.000,4110.7049,N,00835.7070,W,2,05,1.3,136.2,M,51.3,M,1.8,0000*6D
$GPGSA,A,3,31,27,21,29,16,,,,,,,,3.0,1.3,2.7*3E
$GPRMC,095519.000,A,4110.7049,N,00835.7070,W,0.14,145.83,270914,,,D*7F
GPSD,O=RMC 1411811719.00 0.005 41.178415 -8.595117          ?        ?        ? 145.8300    0.072          ?             ?        ?        ?        ?,R=1

--------
Systime: 1411811720.11345
$GPGGA,095520.000,4110.7050,N,00835.7067,W,2,05,1.3,134.6,M,51.3,M,1.8,0000*6F

--------
Systime: 1411811720.66163
GPSD,O=GGA 1411811720.00 0.005 41.178417 -8.595112  134.60        ?        ?             ?            ?  0.000             ?        ?        ?        ?,R=1
$GPGSA,A,3,31,27,21,29,16,,,,,,,,3.0,1.3,2.7*3E
$GPRMC,095520.000,A,4110.7050,N,00835.7067,W,0.17,130.54,270914,,,D*70
GPSD,O=RMC 1411811720.00 0.005 41.178417 -8.595112          ?        ?        ? 130.5400    0.087          ?             ?        ?        ?        ?,R=1

--------
Systime: 1411811721.40972
$GPGGA,095521.000,4110.7050,N,00835.7064,W,2,05,1.3,133.2,M,51.3,M,1.8,0000*6E
$GPGSA,A,3,31,27,21,29,16,,,,,,,,3.0,1.3,2.7*3E
$GPRMC,095521.000,A,4110.7050,N,00835.7064,W,0.19,132.64,270914,,,D*7D
GPSD,O=RMC 1411811721.00 0.005 41.178417 -8.595107          ?        ?        ? 132.6400    0.098          ?             ?        ?        ?        ?,R=1

--------
Systime: 1411811722.84396
$GPGGA,095522.000,4110.7050,N,00835.7061,W,2,05,1.3,131.9,M,51.3,M,2.8,0000*62
$GPGSA,A,3,31,27,21,29,16,,,,,,,,3.0,1.3,2.7*3E
$GPGSV,3,1,12,21,64,106,45,16,47,312,28,31,41,190,43,27,30,260,42*7D
$GPGSV,3,2,12,29,24,059,25,18,10,128,19,23,05,290,25,13,04,321,*78
$GPGSV,3,3,12,25,02,117,,19,02,248,,09,01,317,,33,41,190,44*7C
$GPRMC,095522.000,A,4110.7050,N,00835.7061,W,0.22,99.65,270914,,,D*42
GPSD,O=RMC 1411811722.00 0.005 41.178417 -8.595102          ?        ?        ?  99.6500    0.113          ?             ?        ?        ?        ?,R=1

--------
Systime: 1411811723.42037
$GPGGA,095523.000,4110.7050,N,00835.7058,W,2,05,1.3,130.8,M,51.3,M,1.8,0000*6A
$GPGSA,A,3,31,27,21,29,16,,,,,,,,3.0,1.3,2.7*3E
$GPRMC,095523.000,A,4110.7050,N,00835.7058,W,0.18,109.41,270914,,,D*7E
GPSD,O=RMC 1411811723.00 0.005 41.178417 -8.595097          ?        ?        ? 109.4100    0.093          ?             ?        ?        ?        ?,R=1

--------
Systime: 1411811724.39033
$GPGGA,095524.000,4110.7050,N,00835.7055,W,2,05,1.3,129.6,M,51.3,M,1.8,0000*66
$GPGSA,A,3,31,27,21,29,16,,,,,,,,3.0,1.3,2.7*3E
$GPRMC,095524.000,A,4110.7050,N,00835.7055,W,0.24,77.51,270914,,,D*42
GPSD,O=RMC 1411811724.00 0.005 41.178417 -8.595092          ?        ?        ?  77.5100    0.123          ?             ?        ?        ?        ?,R=1

--------
Systime: 1411811725.45554
$GPGGA,095525.000,4110.7050,N,00835.7052,W,2,05,1.3,128.3,M,51.3,M,1.8,0000*64
$GPGSA,A,3,31,27,21,29,16,,,,,,,,3.0,1.3,2.7*3E
$GPRMC,095525.000,A,4110.7050,N,00835.7052,W,0.21,96.22,270914,,,D*4A
GPSD,O=RMC 1411811725.00 0.005 41.178417 -8.595087          ?        ?        ?  96.2200    0.108          ?             ?        ?        ?        ?,R=1

--------
Systime: 1411811726.42742
$GPGGA,095526.000,4110.7051,N,00835.7050,W,2,05,1.3,127.0,M,51.3,M,2.8,0000*6B
$GPGSA,A,3,31,27,21,29,16,,,,,,,,3.0,1.3,2.7*3E
$GPRMC,095526.000,A,4110.7051,N,00835.7050,W,0.27,81.12,270914,,,D*49
GPSD,O=RMC 1411811726.00 0.005 41.178418 -8.595083          ?        ?        ?  81.1200    0.139          ?             ?        ?        ?        ?,R=1

--------
Systime: 1411811727.35245
$GPGGA,095527.000,4110.7051,N,00835.7047,W,2,05,1.3,125.8,M,51.3,M,1.8,0000*65
$GPGSA,A,3,31,27,21,29,16,,,,,,,,3.0,1.3,2.7*3E

--------
Systime: 1411811728.40217
$GPGSV,3,1,12,21,64,106,45,16,47,312,28,31,41,190,43,27,30,260,42*7D
GPSD,O=GSV 1411811727.00 0.005 41.178418 -8.595078  125.80  2.60  5.40             ?            ?  0.000 161.9347  5.20        ? 3,R=1
$GPGSV,3,2,12,29,24,059,25,18,10,128,20,23,05,290,24,13,04,321,*73
$GPGSV,3,3,12,25,02,117,,19,02,248,,09,01,317,,33,41,190,44*7C
$GPRMC,095527.000,A,4110.7051,N,00835.7047,W,0.31,116.52,270914,,,D*72
GPSD,O=RMC 1411811727.00 0.005 41.178418 -8.595078          ?        ?        ? 116.5200    0.159          ?             ?        ?        ?        ?,R=1
$GPGGA,095528.000,4110.7050,N,00835.7046,W,2,05,1.3,125.4,M,51.3,M,1.8,0000*66
$GPGSA,A,3,31,27,21,29,16,,,,,,,,3.0,1.3,2.7*3E
$GPRMC,095528.000,A,4110.7050,N,00835.7046,W,0.31,132.61,270914,,,D*7B

--------
Systime: 1411811729.47633
$GPGGA,095529.000,4110.7049,N,00835.7044,W,2,05,1.3,124.4,M,51.3,M,1.8,0000*6C
$GPGSA,A,3,31,27,21,29,16,,,,,,,,3.0,1.3,2.7*3E
$GPRMC,095529.000,A,4110.7049,N,00835.7044,W,0.33,105.02,270914,,,D*73
GPSD,O=RMC 1411811729.00 0.005 41.178415 -8.595073          ?        ?        ? 105.0200    0.170          ?             ?        ?        ?        ?,R=1

--------
Systime: 1411811730.44397
$GPGGA,095530.000,4110.7048,N,00835.7043,W,2,05,1.3,124.0,M,51.3,M,2.8,0000*65
$GPGSA,A,3,31,27,21,29,16,,,,,,,,3.0,1.3,2.7*3E
$GPRMC,095530.000,A,4110.7048,N,00835.7043,W,0.32,117.65,270914,,,D*7E
GPSD,O=RMC 1411811730.00 0.005 41.178413 -8.595072          ?        ?        ? 117.6500    0.165          ?             ?        ?        ?        ?,R=1

--------
Systime: 1411811731.35242
$GPGGA,095531.000,4110.7048,N,00835.7042,W,2,05,1.3,123.7,M,51.3,M,1.8,0000*66
$GPGSA,A,3,31,27,21,29,16,,,,,,,,3.0,1.3,2.7*3E
$GPRMC,095531.000,A,4110.7048,N,00835.7042,W,0.25,115.86,270914,,,D*77

--------
Systime: 1411811732.74412
GPSD,O=RMC 1411811731.00 0.005 41.178413 -8.595070          ?        ?        ? 115.8600    0.129          ?             ?        ?        ?        ?,R=1
GPSD,O=RMC 1411811731.00 0.005 41.178413 -8.595070          ?        ?        ? 115.8600    0.129          ?             ?        ?        ?        ?,R=1
$GPGGA,095532.000,4110.7047,N,00835.7043,W,2,05,1.3,124.1,M,51.3,M,1.8,0000*6A
$GPGSA,A,3,31,27,21,29,16,,,,,,,,3.0,1.3,2.7*3E
$GPGSV,3,1,12,21,64,106,46,16,47,312,27,31,41,190,44,27,30,260,42*76
$GPGSV,3,2,12,29,24,059,25,18,10,128,20,23,05,290,18,13,04,321,*7C
$GPGSV,3,3,12,25,02,117,,19,02,248,,09,01,317,,33,41,190,44*7C

--------
Systime: 1411811733.4566
$GPRMC,095532.000,A,4110.7047,N,00835.7043,W,0.23,128.03,270914,,,D*7F
$GPGGA,095533.000,4110.7046,N,00835.7043,W,2,05,1.3,123.9,M,51.3,M,1.8,0000*65
$GPGSA,A,3,31,27,21,29,16,,,,,,,,3.0,1.3,2.7*3E
$GPRMC,095533.000,A,4110.7046,N,00835.7043,W,0.21,116.84,270914,,,D*7F
GPSD,O=RMC 1411811733.00 0.005 41.178410 -8.595072          ?        ?        ? 116.8400    0.108          ?             ?        ?        ?        ?,R=1

--------
Systime: 1411811734.48332
$GPGGA,095534.000,4110.7046,N,00835.7043,W,2,05,1.3,124.2,M,51.3,M,2.8,0000*6D
$GPGSA,A,3,31,27,21,29,16,,,,,,,,3.0,1.3,2.7*3E
$GPRMC,095534.000,A,4110.7046,N,00835.7043,W,0.14,121.06,270914,,,D*70
GPSD,O=RMC 1411811734.00 0.005 41.178410 -8.595072          ?        ?        ? 121.0600    0.072          ?             ?        ?        ?        ?,R=1

--------
Systime: 1411811735.38738
$GPGGA,095535.000,4110.7045,N,00835.7044,W,2,05,1.3,124.6,M,51.3,M,1.8,0000*6F
$GPGSA,A,3,31,27,21,29,16,,,,,,,,3.0,1.3,2.7*3E
$GPRMC,095535.000,A,4110.7045,N,00835.7044,W,0.09,111.13,270914,,,D*7E
GPSD,O=RMC 1411811735.00 0.005 41.178408 -8.595073          ?        ?        ? 111.1300    0.046          ?             ?        ?        ?        ?,R=1

--------
Systime: 1411811736.43518
$GPGGA,095536.000,4110.7045,N,00835.7045,W,2,05,1.3,124.7,M,51.3,M,1.8,0000*6C
$GPGSA,A,3,31,27,21,29,16,,,,,,,,3.0,1.3,2.7*3E
$GPRMC,095536.000,A,4110.7045,N,00835.7045,W,0.06,101.64,270914,,,D*72
GPSD,O=RMC 1411811736.00 0.005 41.178408 -8.595075          ?        ?        ? 101.6400    0.031          ?             ?        ?        ?        ?,R=1

--------
Systime: 1411811738.16511
$GPGGA,095537.000,4110.7044,N,00835.7047,W,2,05,1.3,125.5,M,51.3,M,1.8,0000*6D
$GPGSA,A,3,31,27,21,29,16,,,,,,,,3.0,1.3,2.7*3E
$GPGSV,3,1,12,21,64,106,46,16,47,312,26,31,41,190,45,27,30,260,42*76
$GPGSV,3,2,12,29,24,059,25,18,10,128,21,23,05,290,18,13,04,321,*7D
$GPGSV,3,3,12,25,02,117,,19,02,248,,09,01,317,,33,41,190,44*7C
$GPRMC,095537.000,A,4110.7044,N,00835.7047,W,0.07,162.15,270914,,,D*72
GPSD,O=RMC 1411811737.00 0.005 41.178407 -8.595078          ?        ?        ? 162.1500    0.036          ?             ?        ?        ?        ?,R=1
$GPGGA,095538.000,4110.7044,N,00835.7047,W,2,05,1.3,125.8,M,51.3,M,1.8,0000*6F

--------
Systime: 1411811738.70441
$GPGSA,A,3,31,27,21,29,16,,,,,,,,3.0,1.3,2.7*3E
$GPRMC,095538.000,A,4110.7044,N,00835.7047,W,0.06,73.80,270914,,,D*41
GPSD,O=RMC 1411811738.00 0.005 41.178407 -8.595078          ?        ?        ?  73.8000    0.031          ?             ?        ?        ?        ?,R=1

--------
Systime: 1411811739.3899
$GPGGA,095539.000,4110.7043,N,00835.7047,W,2,05,1.3,125.9,M,51.3,M,1.8,0000*68
$GPGSA,A,3,31,27,21,29,16,,,,,,,,3.0,1.3,2.7*3E
$GPRMC,095539.000,A,4110.7043,N,00835.7047,W,0.10,154.16,270914,,,D*7B
GPSD,O=RMC 1411811739.00 0.005 41.178405 -8.595078          ?        ?        ? 154.1600    0.051          ?             ?        ?        ?        ?,R=1

--------
Systime: 1411811740.42768
$GPGGA,095540.000,4110.7042,N,00835.7048,W,2,05,1.3,126.2,M,51.3,M,1.8,0000*60
$GPGSA,A,3,31,27,21,29,16,,,,,,,,3.0,1.3,2.7*3E
$GPRMC,095540.000,A,4110.7042,N,00835.7048,W,0.16,160.10,270914,,,D*7C
GPSD,O=RMC 1411811740.00 0.005 41.178403 -8.595080          ?        ?        ? 160.1000    0.082          ?             ?        ?        ?        ?,R=1

--------
Systime: 1411811741.45308
$GPGGA,095541.000,4110.7040,N,00835.7049,W,2,05,1.3,126.5,M,51.3,M,1.8,0000*65
