Systime: 1411809286.88658
GPSD,O=?,R=1
$GPRMC,091514.000,A,4110.7091,N,00835.7092,W,0.25,189.36,270914,,,D*73

--------
Systime: 1411809288.3368
$GPGGA,091515.000,4110.7093,N,00835.7091,W,2,06,1.2,134.9,M,51.3,M,1.8,0000*66
$GPGSA,A,3,31,21,25,27,16,29,,,,,,,2.1,1.2,1.8*34
$GPGSV,3,1,11,31,60,199,46,21,55,139,44,29,39,051,22,16,31,301,27*73
$GPGSV,3,2,11,27,16,247,24,25,15,105,31,23,09,305,,05,02,042,15*73
$GPGSV,3,3,11,09,,332,,13,,335,,33,41,190,40*4C
$GPRMC,091515.000,A,4110.7093,N,00835.7091,W,0.10,359.80,270914,,,D*77
GPSD,O=RMC 1411809315.00 0.005 41.178488 -8.595152          ?        ?        ? 359.8000    0.051          ?             ?        ?        ?        ?,R=1

--------
Systime: 1411809288.90495
$GPGGA,091516.000,4110.7095,N,00835.7090,W,2,06,1.2,136.2,M,51.3,M,1.8,0000*6B
$GPGSA,A,3,31,21,25,27,16,29,,,,,,,2.1,1.2,1.8*34
$GPRMC,091516.000,A,4110.7095,N,00835.7090,W,0.26,357.23,270914,,,D*71
GPSD,O=RMC 1411809316.00 0.005 41.178492 -8.595150          ?        ?        ? 357.2300    0.134          ?             ?        ?        ?        ?,R=1

--------
Systime: 1411809289.8995
$GPGGA,091517.000,4110.7096,N,00835.7089,W,2,06,1.2,137.1,M,51.3,M,1.8,0000*63
$GPGSA,A,3,31,21,25,27,16,29,,,,,,,2.1,1.2,1.8*34
$GPRMC,091517.000,A,4110.7096,N,00835.7089,W,0.10,357.19,270914,,,D*77
GPSD,O=RMC 1411809317.00 0.005 41.178493 -8.595148          ?        ?        ? 357.1900    0.051          ?             ?        ?        ?        ?,R=1

--------
Systime: 1411809290.89769
$GPGGA,091518.000,4110.7099,N,00835.7089,W,2,06,1.2,138.2,M,51.3,M,1.8,0000*6F
$GPGSA,A,3,31,21,25,27,16,29,,,,,,,2.1,1.2,1.8*34
$GPRMC,091518.000,A,4110.7099,N,00835.7089,W,0.26,0.98,270914,,,D*7A
GPSD,O=RMC 1411809318.00 0.005 41.178498 -8.595148          ?        ?        ?   0.9800    0.134          ?             ?        ?        ?        ?,R=1

--------
Systime: 1411809291.89886
$GPGGA,091519.000,4110.7101,N,00835.7090,W,2,06,1.2,139.1,M,51.3,M,1.8,0000*64
$GPGSA,A,3,31,21,25,27,16,29,,,,,,,2.1,1.2,1.8*34
$GPRMC,091519.000,A,4110.7101,N,00835.7090,W,0.02,37.10,270914,,,D*41
GPSD,O=RMC 1411809319.00 0.005 41.178502 -8.595150          ?        ?        ?  37.1000    0.010          ?             ?        ?        ?        ?,R=1

--------
Systime: 1411809293.33673
$GPGGA,091520.000,4110.7100,N,00835.7092,W,2,06,1.2,139.6,M,51.3,M,1.8,0000*6A
$GPGSA,A,3,31,21,25,27,16,29,,,,,,,2.1,1.2,1.8*34
$GPGSV,3,1,11,31,60,199,46,21,55,139,43,29,39,051,23,16,31,301,26*74
$GPGSV,3,2,11,27,16,247,24,25,15,105,32,23,09,305,,05,02,042,14*71
$GPGSV,3,3,11,09,,332,,13,,335,,33,41,190,39*42
$GPRMC,091520.000,A,4110.7100,N,00835.7092,W,0.22,350.80,270914,,,D*71
GPSD,O=RMC 1411809320.00 0.005 41.178500 -8.595153          ?        ?        ? 350.8000    0.113          ?             ?        ?        ?        ?,R=1

--------
Systime: 1411809293.89753
$GPGGA,091521.000,4110.7099,N,00835.7095,W,2,06,1.2,139.9,M,51.3,M,1.8,0000*62
$GPGSA,A,3,31,21,25,27,16,29,,,,,,,2.1,1.2,1.8*34
$GPRMC,091521.000,A,4110.7099,N,00835.7095,W,0.73,343.41,270914,,,D*7D
GPSD,O=RMC 1411809321.00 0.005 41.178498 -8.595158          ?        ?        ? 343.4100    0.376          ?             ?        ?        ?        ?,R=1

--------
Systime: 1411809294.90195
$GPGGA,091522.000,4110.7101,N,00835.7096,W,2,06,1.2,140.5,M,51.3,M,2.8,0000*63
$GPGSA,A,3,31,21,25,27,16,29,,,,,,,2.1,1.2,1.8*34
$GPRMC,091522.000,A,4110.7101,N,00835.7096,W,0.38,322.41,270914,,,D*75
GPSD,O=RMC 1411809322.00 0.005 41.178502 -8.595160          ?        ?        ? 322.4100    0.195          ?             ?        ?        ?        ?,R=1

--------
Systime: 1411809295.90453
$GPGGA,091523.000,4110.7101,N,00835.7098,W,2,06,1.2,140.9,M,51.3,M,1.8,0000*63
$GPGSA,A,3,31,21,25,27,16,29,,,,,,,2.1,1.2,1.8*34
$GPRMC,091523.000,A,4110.7101,N,00835.7098,W,0.64,345.42,270914,,,D*71
GPSD,O=RMC 1411809323.00 0.005 41.178502 -8.595163          ?        ?        ? 345.4200    0.329          ?             ?        ?        ?        ?,R=1

--------
Systime: 1411809296.90095
$GPGGA,091524.000,4110.7103,N,00835.7099,W,2,06,1.2,141.6,M,51.3,M,1.8,0000*69
$GPGSA,A,3,31,21,25,27,16,29,,,,,,,2.1,1.2,1.8*34
$GPRMC,091524.000,A,4110.7103,N,00835.7099,W,0.61,345.78,270914,,,D*79
GPSD,O=RMC 1411809324.00 0.005 41.178505 -8.595165          ?        ?        ? 345.7800    0.314          ?             ?        ?        ?        ?,R=1

--------
Systime: 1411809298.33861
$GPGGA,091525.000,4110.7103,N,00835.7100,W,2,06,1.2,142.0,M,51.3,M,1.8,0000*6C
$GPGSA,A,3,31,21,25,27,16,29,,,,,,,2.1,1.2,1.8*34
$GPGSV,3,1,11,31,60,199,45,21,55,139,43,29,39,051,23,16,31,301,22*73
$GPGSV,3,2,11,27,16,247,23,25,15,105,31,23,09,305,17,05,02,042,14*73
$GPGSV,3,3,11,09,,332,,13,,335,,33,41,190,39*42
$GPRMC,091525.000,A,4110.7103,N,00835.7100,W,0.28,323.99,270914,,,D*7B
GPSD,O=RMC 1411809325.00 0.005 41.178505 -8.595167          ?        ?        ? 323.9900    0.144          ?             ?        ?        ?        ?,R=1

--------
Systime: 1411809298.90562
$GPGGA,091526.000,4110.7099,N,00835.7103,W,2,06,1.2,141.8,M,51.3,M,2.8,0000*66
$GPGSA,A,3,31,21,25,27,16,29,,,,,,,2.1,1.2,1.8*34
$GPRMC,091526.000,A,4110.7099,N,00835.7103,W,0.28,171.08,270914,,,D*74
GPSD,O=RMC 1411809326.00 0.005 41.178498 -8.595172          ?        ?        ? 171.0800    0.144          ?             ?        ?        ?        ?,R=1

--------
Systime: 1411809299.8995
$GPGGA,091527.000,4110.7096,N,00835.7104,W,2,06,1.2,141.6,M,51.3,M,1.8,0000*62
$GPGSA,A,3,31,21,25,27,16,29,,,,,,,2.1,1.2,1.8*34
$GPRMC,091527.000,A,4110.7096,N,00835.7104,W,0.23,169.43,270914,,,D*70
GPSD,O=RMC 1411809327.00 0.005 41.178493 -8.595173          ?        ?        ? 169.4300    0.118          ?             ?        ?        ?        ?,R=1

--------
Systime: 1411809300.90365
$GPGGA,091528.000,4110.7093,N,00835.7105,W,2,06,1.2,141.5,M,51.3,M,1.8,0000*6A
$GPGSA,A,3,31,21,25,27,16,29,,,,,,,2.1,1.2,1.8*34
$GPRMC,091528.000,A,4110.7093,N,00835.7105,W,0.12,161.57,270914,,,D*74
GPSD,O=RMC 1411809328.00 0.005 41.178488 -8.595175          ?        ?        ? 161.5700    0.062          ?             ?        ?        ?        ?,R=1

--------
Systime: 1411809301.89965
$GPGGA,091529.000,4110.7092,N,00835.7107,W,2,06,1.2,141.4,M,51.3,M,1.8,0000*69
$GPGSA,A,3,31,21,25,27,16,29,,,,,,,2.1,1.2,1.8*34
$GPRMC,091529.000,A,4110.7092,N,00835.7107,W,0.31,353.38,270914,,,D*7D
GPSD,O=RMC 1411809329.00 0.005 41.178487 -8.595178          ?        ?        ? 353.3800    0.159          ?             ?        ?        ?        ?,R=1

--------
Systime: 1411809303.34754
$GPGGA,091530.000,4110.7089,N,00835.7109,W,2,06,1.2,140.9,M,51.3,M,2.8,0000*6A
$GPGSA,A,3,31,21,25,27,16,29,,,,,,,2.1,1.2,1.8*34
$GPGSV,3,1,11,31,60,199,45,21,55,139,43,29,39,051,25,16,31,301,21*76
$GPGSV,3,2,11,27,16,247,22,25,15,105,31,23,09,305,17,05,02,042,14*72
$GPGSV,3,3,11,09,,332,,13,,335,,33,41,190,39*42
$GPRMC,091530.000,A,4110.7089,N,00835.7109,W,0.28,205.07,270914,,,D*77
GPSD,O=RMC 1411809330.00 0.005 41.178482 -8.595182          ?        ?        ? 205.0700    0.144          ?             ?        ?        ?        ?,R=1

--------
Systime: 1411809303.89903
$GPGGA,091531.000,4110.7084,N,00835.7111,W,2,06,1.2,140.5,M,51.3,M,1.8,0000*60
$GPGSA,A,3,31,21,25,27,16,29,,,,,,,2.1,1.2,1.8*34
$GPRMC,091531.000,A,4110.7084,N,00835.7111,W,0.55,179.31,270914,,,D*75
GPSD,O=RMC 1411809331.00 0.005 41.178473 -8.595185          ?        ?        ? 179.3100    0.283          ?             ?        ?        ?        ?,R=1

--------
Systime: 1411809304.91468
$GPGGA,091532.000,4110.7081,N,00835.7112,W,2,06,1.2,140.0,M,51.3,M,1.8,0000*60
$GPGSA,A,3,31,21,25,27,16,29,,,,,,,2.1,1.2,1.8*34
$GPRMC,091532.000,A,4110.7081,N,00835.7112,W,0.29,225.34,270914,,,D*74
GPSD,O=RMC 1411809332.00 0.005 41.178468 -8.595187          ?        ?        ? 225.3400    0.149          ?             ?        ?        ?        ?,R=1

--------
Systime: 1411809305.89789
$GPGGA,091533.000,4110.7078,N,00835.7114,W,2,06,1.2,139.8,M,51.3,M,1.8,0000*67
$GPGSA,A,3,31,21,25,27,16,29,,,,,,,2.1,1.2,1.8*34
$GPRMC,091533.000,A,4110.7078,N,00835.7114,W,0.58,170.67,270914,,,D*76
GPSD,O=RMC 1411809333.00 0.005 41.178463 -8.595190          ?        ?        ? 170.6700    0.298          ?             ?        ?        ?        ?,R=1

--------
Systime: 1411809306.90299
$GPGGA,091534.000,4110.7075,N,00835.7114,W,2,06,1.2,139.6,M,51.3,M,2.8,0000*60
$GPGSA,A,3,31,21,25,27,16,29,,,,,,,2.1,1.2,1.8*34
$GPRMC,091534.000,A,4110.7075,N,00835.7114,W,0.53,171.85,270914,,,D*7A
GPSD,O=RMC 1411809334.00 0.005 41.178458 -8.595190          ?        ?        ? 171.8500    0.273          ?             ?        ?        ?        ?,R=1

--------
Systime: 1411809308.33557
$GPGGA,091535.000,4110.7072,N,00835.7115,W,2,06,1.2,139.5,M,51.3,M,1.8,0000*67
$GPGSA,A,3,31,21,25,27,16,29,,,,,,,2.1,1.2,1.8*34
$GPGSV,3,1,11,31,60,199,45,21,55,139,43,29,39,051,26,16,31,301,20*74
$GPGSV,3,2,11,27,16,247,22,25,15,105,32,23,09,305,17,05,02,042,14*71
$GPGSV,3,3,11,09,,332,,13,,335,,33,41,190,39*42
$GPRMC,091535.000,A,4110.7072,N,00835.7115,W,0.77,172.18,270914,,,D*7C
GPSD,O=RMC 1411809335.00 0.005 41.178453 -8.595192          ?        ?        ? 172.1800    0.396          ?             ?        ?        ?        ?,R=1

--------
Systime: 1411809308.90767
$GPGGA,091536.000,4110.7068,N,00835.7115,W,2,06,1.2,139.3,M,51.3,M,1.8,0000*69
$GPGSA,A,3,31,21,25,27,16,29,,,,,,,2.1,1.2,1.8*34
$GPRMC,091536.000,A,4110.7068,N,00835.7115,W,0.93,171.04,270914,,,D*70
GPSD,O=RMC 1411809336.00 0.005 41.178447 -8.595192          ?        ?        ? 171.0400    0.478          ?             ?        ?        ?        ?,R=1

--------
Systime: 1411809309.90292
$GPGGA,091537.000,4110.7066,N,00835.7115,W,2,06,1.2,139.3,M,51.3,M,1.8,0000*66
$GPGSA,A,3,31,21,25,27,16,29,,,,,,,2.1,1.2,1.8*34
$GPRMC,091537.000,A,4110.7066,N,00835.7115,W,0.02,266.78,270914,,,D*79
GPSD,O=RMC 1411809337.00 0.005 41.178443 -8.595192          ?        ?        ? 266.7800    0.010          ?             ?        ?        ?        ?,R=1

--------
Systime: 1411809310.907
$GPGGA,091538.000,4110.7065,N,00835.7116,W,2,06,1.2,139.2,M,51.3,M,2.8,0000*6B
$GPGSA,A,3,31,21,25,27,16,29,,,,,,,2.1,1.2,1.8*34
$GPRMC,091538.000,A,4110.7065,N,00835.7116,W,0.31,163.28,270914,,,D*75
GPSD,O=RMC 1411809338.00 0.005 41.178442 -8.595193          ?        ?        ? 163.2800    0.159          ?             ?        ?        ?        ?,R=1

--------
Systime: 1411809311.90094
$GPGGA,091539.000,4110.7064,N,00835.7117,W,2,06,1.2,139.0,M,51.3,M,1.8,0000*6B
$GPGSA,A,3,31,21,25,27,16,29,,,,,,,2.1,1.2,1.8*34
$GPRMC,091539.000,A,4110.7064,N,00835.7117,W,0.27,322.75,270914,,,D*7C
GPSD,O=RMC 1411809339.00 0.005 41.178440 -8.595195          ?        ?        ? 322.7500    0.139          ?             ?        ?        ?        ?,R=1

--------
Systime: 1411809313.33678
$GPGGA,091540.000,4110.7063,N,00835.7118,W,2,06,1.2,138.8,M,51.3,M,1.8,0000*64
$GPGSA,A,3,31,21,25,27,16,29,,,,,,,2.1,1.2,1.8*34
$GPGSV,3,1,11,31,60,199,46,21,55,139,43,29,39,051,27,16,31,301,20*76
$GPGSV,3,2,11,27,16,247,22,25,15,105,32,23,09,305,17,05,02,042,13*76
$GPGSV,3,3,11,09,,332,,13,,335,,33,41,190,40*4C
$GPRMC,091540.000,A,4110.7063,N,00835.7118,W,0.27,322.40,270914,,,D*7C
GPSD,O=RMC 1411809340.00 0.005 41.178438 -8.595197          ?        ?        ? 322.4000    0.139          ?             ?        ?        ?        ?,R=1

--------
Systime: 1411809313.9025
$GPGGA,091541.000,4110.7061,N,00835.7118,W,2,06,1.2,138.7,M,51.3,M,1.8,0000*68
$GPGSA,A,3,31,21,25,27,16,29,,,,,,,2.1,1.2,1.8*34
$GPRMC,091541.000,A,4110.7061,N,00835.7118,W,0.39,171.36,270914,,,D*75
GPSD,O=RMC 1411809341.00 0.005 41.178435 -8.595197          ?        ?        ? 171.3600    0.201          ?             ?        ?        ?        ?,R=1

--------
Systime: 1411809314.90068
$GPGGA,091542.000,4110.7059,N,00835.7118,W,2,06,1.2,138.7,M,51.3,M,2.8,0000*63
$GPGSA,A,3,31,21,25,27,16,29,,,,,,,2.1,1.2,1.8*34
$GPRMC,091542.000,A,4110.7059,N,00835.7118,W,0.27,173.09,270914,,,D*7C
GPSD,O=RMC 1411809342.00 0.005 41.178432 -8.595197          ?        ?        ? 173.0900    0.139          ?             ?        ?        ?        ?,R=1

--------
Systime: 1411809315.9045
$GPGGA,091543.000,4110.7056,N,00835.7116,W,2,06,1.2,138.9,M,51.3,M,1.8,0000*6E
$GPGSA,A,3,31,21,25,27,16,29,,,,,,,2.1,1.2,1.8*34
$GPRMC,091543.000,A,4110.7056,N,00835.7116,W,0.21,160.15,270914,,,D*75
GPSD,O=RMC 1411809343.00 0.005 41.178427 -8.595193          ?        ?        ? 160.1500    0.108          ?             ?        ?        ?        ?,R=1

--------
Systime: 1411809316.9059
$GPGGA,091544.000,4110.7054,N,00835.7116,W,2,06,1.2,138.7,M,51.3,M,1.8,0000*65
$GPGSA,A,3,31,21,25,27,16,29,,,,,,,2.1,1.2,1.8*34
$GPRMC,091544.000,A,4110.7054,N,00835.7116,W,0.16,225.71,270914,,,D*74
GPSD,O=RMC 1411809344.00 0.005 41.178423 -8.595193          ?        ?        ? 225.7100    0.082          ?             ?        ?        ?        ?,R=1

--------
Systime: 1411809318.34699
$GPGGA,091545.000,4110.7052,N,00835.7117,W,2,06,1.2,138.3,M,51.3,M,1.8,0000*67
$GPGSA,A,3,31,21,25,27,16,29,,,,,,,2.1,1.2,1.8*34
$GPGSV,3,1,11,31,60,199,46,21,55,139,43,29,39,051,28,16,31,301,21*78
$GPGSV,3,2,11,27,16,247,21,25,15,105,32,23,09,305,16,05,02,042,14*73
$GPGSV,3,3,11,09,,332,,13,,335,,33,41,190,40*4C
$GPRMC,091545.000,A,4110.7052,N,00835.7117,W,0.24,236.38,270914,,,D*7C
GPSD,O=RMC 1411809345.00 0.005 41.178420 -8.595195          ?        ?        ? 236.3800    0.123          ?             ?        ?        ?        ?,R=1

--------
Systime: 1411809318.89783
$GPGGA,091546.000,4110.7050,N,00835.7117,W,2,06,1.2,138.1,M,51.3,M,2.8,0000*67
$GPGSA,A,3,31,21,25,27,16,29,,,,,,,2.1,1.2,1.8*34
$GPRMC,091546.000,A,4110.7050,N,00835.7117,W,0.29,210.05,270914,,,D*7A
GPSD,O=RMC 1411809346.00 0.005 41.178417 -8.595195          ?        ?        ? 210.0500    0.149          ?             ?        ?        ?        ?,R=1

--------
Systime: 1411809319.9045
$GPGGA,091547.000,4110.7047,N,00835.7116,W,2,06,1.2,137.9,M,51.3,M,1.8,0000*65
$GPGSA,A,3,31,21,25,27,16,29,,,,,,,2.1,1.2,1.8*34
$GPRMC,091547.000,A,4110.7047,N,00835.7116,W,0.27,222.08,270914,,,D*7E
GPSD,O=RMC 1411809347.00 0.005 41.178412 -8.595193          ?        ?        ? 222.0800    0.139          ?             ?        ?        ?        ?,R=1

--------
Systime: 1411809320.90151
$GPGGA,091548.000,4110.7045,N,00835.7115,W,2,06,1.2,137.9,M,51.3,M,1.8,0000*6B
$GPGSA,A,3,31,21,25,27,16,29,,,,,,,2.1,1.2,1.8*34
$GPRMC,091548.000,A,4110.7045,N,00835.7115,W,0.19,199.01,270914,,,D*77
GPSD,O=RMC 1411809348.00 0.005 41.178408 -8.595192          ?        ?        ? 199.0100    0.098          ?             ?        ?        ?        ?,R=1

--------
Systime: 1411809321.90753
$GPGGA,091549.000,4110.7044,N,00835.7115,W,2,06,1.2,137.8,M,51.3,M,1.8,0000*6A
$GPGSA,A,3,31,21,25,27,16,29,,,,,,,2.1,1.2,1.8*34
$GPRMC,091549.000,A,4110.7044,N,00835.7115,W,0.22,219.43,270914,,,D*72
GPSD,O=RMC 1411809349.00 0.005 41.178407 -8.595192          ?        ?        ? 219.4300    0.113          ?             ?        ?        ?        ?,R=1

--------
Systime: 1411809323.34457
$GPGGA,091550.000,4110.7043,N,00835.7114,W,2,06,1.2,137.8,M,51.3,M,2.8,0000*67
$GPGSA,A,3,31,21,25,27,16,29,,,,,,,2.1,1.2,1.8*34
$GPGSV,3,1,11,31,60,199,46,21,55,139,43,29,39,051,29,16,31,301,26*7E
$GPGSV,3,2,11,27,16,247,21,25,15,105,32,23,09,305,17,05,02,042,15*73
$GPGSV,3,3,11,09,,332,,13,,335,,33,41,190,40*4C
$GPRMC,091550.000,A,4110.7043,N,00835.7114,W,0.21,205.43,270914,,,D*72
GPSD,O=RMC 1411809350.00 0.005 41.178405 -8.595190          ?        ?        ? 205.4300    0.108          ?             ?        ?        ?        ?,R=1

--------
Systime: 1411809323.90693
$GPGGA,091551.000,4110.7042,N,00835.7113,W,2,06,1.2,138.0,M,51.3,M,1.8,0000*64
$GPGSA,A,3,31,21,25,27,16,29,,,,,,,2.1,1.2,1.8*34
$GPRMC,091551.000,A,4110.7042,N,00835.7113,W,0.14,164.73,270914,,,D*74
GPSD,O=RMC 1411809351.00 0.005 41.178403 -8.595188          ?        ?        ? 164.7300    0.072          ?             ?        ?        ?        ?,R=1

--------
Systime: 1411809324.90877
$GPGGA,091552.000,4110.7041,N,00835.7113,W,2,06,1.2,138.2,M,51.3,M,1.8,0000*66
$GPGSA,A,3,31,21,25,27,16,29,,,,,,,2.1,1.2,1.8*34
$GPRMC,091552.000,A,4110.7041,N,00835.7113,W,0.10,160.59,270914,,,D*7C
GPSD,O=RMC 1411809352.00 0.005 41.178402 -8.595188          ?        ?        ? 160.5900    0.051          ?             ?        ?        ?        ?,R=1

--------
Systime: 1411809325.90166
$GPGGA,091553.000,4110.7041,N,00835.7112,W,2,06,1.2,138.4,M,51.3,M,1.8,0000*60
$GPGSA,A,3,31,21,25,27,16,29,,,,,,,2.1,1.2,1.8*34
$GPRMC,091553.000,A,4110.7041,N,00835.7112,W,0.11,148.46,270914,,,D*79
GPSD,O=RMC 1411809353.00 0.005 41.178402 -8.595187          ?        ?        ? 148.4600    0.057          ?             ?        ?        ?        ?,R=1

--------
Systime: 1411809326.9045
$GPGGA,091554.000,4110.7041,N,00835.7111,W,2,06,1.2,138.7,M,51.3,M,2.8,0000*64
$GPGSA,A,3,31,21,25,27,16,29,,,,,,,2.1,1.2,1.8*34
$GPRMC,091554.000,A,4110.7041,N,00835.7111,W,0.10,115.05,270914,,,D*73
GPSD,O=RMC 1411809354.00 0.005 41.178402 -8.595185          ?        ?        ? 115.0500    0.051          ?             ?        ?        ?        ?,R=1

--------
Systime: 1411809328.33952
$GPGGA,091555.000,4110.7040,N,00835.7110,W,2,06,1.2,138.9,M,51.3,M,1.8,0000*68
$GPGSA,A,3,31,21,25,27,16,29,,,,,,,2.1,1.2,1.8*34
$GPGSV,3,1,11,31,60,199,46,21,55,139,43,29,39,051,30,16,31,301,26*76
$GPGSV,3,2,11,27,16,247,21,25,15,105,32,23,09,305,17,05,02,042,15*73
$GPGSV,3,3,11,09,,332,,13,,335,,33,41,190,39*42
$GPRMC,091555.000,A,4110.7040,N,00835.7110,W,0.03,226.31,270914,,,D*74
GPSD,O=RMC 1411809355.00 0.005 41.178400 -8.595183          ?        ?        ? 226.3100    0.015          ?             ?        ?        ?        ?,R=1

--------
Systime: 1411809328.90664
$GPGGA,091556.000,4110.7038,N,00835.7108,W,2,06,1.2,138.9,M,51.3,M,1.8,0000*6D
$GPGSA,A,3,31,21,25,27,16,29,,,,,,,2.1,1.2,1.8*34
$GPRMC,091556.000,A,4110.7038,N,00835.7108,W,0.22,197.87,270914,,,D*76
GPSD,O=RMC 1411809356.00 0.005 41.178397 -8.595180          ?        ?        ? 197.8700    0.113          ?             ?        ?        ?        ?,R=1

--------
Systime: 1411809329.9055
$GPGGA,091557.000,4110.7037,N,00835.7107,W,2,06,1.2,139.3,M,51.3,M,1.8,0000*67
$GPGSA,A,3,31,21,25,27,16,29,,,,,,,2.1,1.2,1.8*34
$GPRMC,091557.000,A,4110.7037,N,00835.7107,W,0.19,140.67,270914,,,D*7B
GPSD,O=RMC 1411809357.00 0.005 41.178395 -8.595178          ?        ?        ? 140.6700    0.098          ?             ?        ?        ?        ?,R=1

--------
Systime: 1411809330.90573
$GPGGA,091558.000,4110.7037,N,00835.7106,W,2,06,1.2,139.5,M,51.3,M,1.8,0000*6F
$GPGSA,A,3,31,21,25,27,16,29,,,,,,,2.1,1.2,1.8*34
$GPRMC,091558.000,A,4110.7037,N,00835.7106,W,0.05,267.03,270914,,,D*7C
GPSD,O=RMC 1411809358.00 0.005 41.178395 -8.595177          ?        ?        ? 267.0300    0.026          ?             ?        ?        ?        ?,R=1

--------
Systime: 1411809331.89998
$GPGGA,091559.000,4110.7036,N,00835.7106,W,2,06,1.2,139.4,M,51.3,M,1.8,0000*6E
$GPGSA,A,3,31,21,25,27,16,29,,,,,,,2.1,1.2,1.8*34
$GPRMC,091559.000,A,4110.7036,N,00835.7106,W,0.17,217.66,270914,,,D*7B
GPSD,O=RMC 1411809359.00 0.005 41.178393 -8.595177          ?        ?        ? 217.6600    0.087          ?             ?        ?        ?        ?,R=1

--------
Systime: 1411809333.34479
$GPGGA,091600.000,4110.7038,N,00835.7108,W,2,06,1.2,139.1,M,51.3,M,1.8,0000*64
$GPGSA,A,3,31,21,25,27,16,29,,,,,,,2.1,1.2,1.8*34
$GPGSV,3,1,11,31,60,199,46,21,55,139,43,29,39,051,30,16,31,301,24*74
$GPGSV,3,2,11,27,16,247,21,25,15,105,32,23,09,305,16,05,02,042,14*73
$GPGSV,3,3,11,09,,332,,13,,335,,33,41,190,39*42
$GPRMC,091600.000,A,4110.7038,N,00835.7108,W,0.52,329.42,270914,,,D*7F
GPSD,O=RMC 1411809360.00 0.005 41.178397 -8.595180          ?        ?        ? 329.4200    0.268          ?             ?        ?        ?        ?,R=1

--------
Systime: 1411809333.90284
$GPGGA,091601.000,4110.7040,N,00835.7110,W,2,06,1.2,139.1,M,51.3,M,1.8,0000*63
$GPGSA,A,3,31,21,25,27,16,29,,,,,,,2.1,1.2,1.8*34
$GPRMC,091601.000,A,4110.7040,N,00835.7110,W,0.14,331.56,270914,,,D*76
GPSD,O=RMC 1411809361.00 0.005 41.178400 -8.595183          ?        ?        ? 331.5600    0.072          ?             ?        ?        ?        ?,R=1

--------
Systime: 1411809334.90485
$GPGGA,091602.000,4110.7040,N,00835.7111,W,2,06,1.2,139.0,M,51.3,M,2.8,0000*63
$GPGSA,A,3,31,21,25,27,16,29,,,,,,,2.1,1.2,1.8*34
$GPRMC,091602.000,A,4110.7040,N,00835.7111,W,0.40,326.54,270914,,,D*71
GPSD,O=RMC 1411809362.00 0.005 41.178400 -8.595185          ?        ?        ? 326.5400    0.206          ?             ?        ?        ?        ?,R=1

--------
Systime: 1411809335.91296
$GPGGA,091603.000,4110.7041,N,00835.7111,W,2,06,1.2,139.1,M,51.3,M,1.8,0000*61
$GPGSA,A,3,31,21,25,27,16,29,,,,,,,2.1,1.2,1.8*34
$GPRMC,091603.000,A,4110.7041,N,00835.7111,W,0.46,336.67,270914,,,D*76
GPSD,O=RMC 1411809363.00 0.005 41.178402 -8.595185          ?        ?        ? 336.6700    0.237          ?             ?        ?        ?        ?,R=1

--------
Systime: 1411809336.9058
$GPGGA,091604.000,4110.7041,N,00835.7112,W,2,06,1.2,138.8,M,51.3,M,1.8,0000*6D
$GPGSA,A,3,31,21,25,27,16,29,,,,,,,2.1,1.2,1.8*34
$GPRMC,091604.000,A,4110.7041,N,00835.7112,W,0.23,262.16,270914,,,D*77
GPSD,O=RMC 1411809364.00 0.005 41.178402 -8.595187          ?        ?        ? 262.1600    0.118          ?             ?        ?        ?        ?,R=1

--------
Systime: 1411809338.34184
$GPGGA,091605.000,4110.7041,N,00835.7112,W,2,06,1.2,138.6,M,51.3,M,1.8,0000*62
$GPGSA,A,3,31,21,25,27,16,29,,,,,,,2.1,1.2,1.8*34
$GPGSV,3,1,11,31,60,199,45,21,55,139,43,29,39,051,31,16,31,301,17*76
$GPGSV,3,2,11,27,16,247,20,25,15,105,31,23,09,305,,05,02,042,14*76
$GPGSV,3,3,11,09,,332,,13,,335,,33,41,190,39*42
$GPRMC,091605.000,A,4110.7041,N,00835.7112,W,0.33,195.11,270914,,,D*7B
GPSD,O=RMC 1411809365.00 0.005 41.178402 -8.595187          ?        ?        ? 195.1100    0.170          ?             ?        ?        ?        ?,R=1

--------
Systime: 1411809338.90167
$GPGGA,091606.000,4110.7039,N,00835.7114,W,2,06,1.2,137.6,M,51.3,M,1.8,0000*67
$GPGSA,A,3,31,21,25,27,16,29,,,,,,,2.1,1.2,1.8*34
$GPRMC,091606.000,A,4110.7039,N,00835.7114,W,0.38,206.92,270914,,,D*78
GPSD,O=RMC 1411809366.00 0.005 41.178398 -8.595190          ?        ?        ? 206.9200    0.195          ?             ?        ?        ?        ?,R=1

--------
Systime: 1411809339.90891
$GPGGA,091607.000,4110.7037,N,00835.7115,W,2,06,1.2,136.9,M,51.3,M,1.8,0000*67
$GPGSA,A,3,31,21,25,27,16,29,,,,,,,2.1,1.2,1.8*34
$GPRMC,091607.000,A,4110.7037,N,00835.7115,W,0.26,211.62,270914,,,D*70
GPSD,O=RMC 1411809367.00 0.005 41.178395 -8.595192          ?        ?        ? 211.6200    0.134          ?             ?        ?        ?        ?,R=1

--------
Systime: 1411809340.91453
$GPGGA,091608.000,4110.7036,N,00835.7115,W,2,06,1.2,136.3,M,51.3,M,1.8,0000*63
$GPGSA,A,3,31,21,25,27,16,29,,,,,,,2.1,1.2,1.8*34
$GPRMC,091608.000,A,4110.7036,N,00835.7115,W,0.23,261.79,270914,,,D*76
GPSD,O=RMC 1411809368.00 0.005 41.178393 -8.595192          ?        ?        ? 261.7900    0.118          ?             ?        ?        ?        ?,R=1

--------
Systime: 1411809341.90591
$GPGGA,091609.000,4110.7034,N,00835.7116,W,2,06,1.2,135.8,M,51.3,M,1.8,0000*6B
$GPGSA,A,3,31,21,25,27,16,29,,,,,,,2.1,1.2,1.8*34
$GPRMC,091609.000,A,4110.7034,N,00835.7116,W,0.22,243.61,270914,,,D*7E
GPSD,O=RMC 1411809369.00 0.005 41.178390 -8.595193          ?        ?        ? 243.6100    0.113          ?             ?        ?        ?        ?,R=1

--------
Systime: 1411809343.34558
$GPGGA,091610.000,4110.7033,N,00835.7116,W,2,06,1.2,135.3,M,51.3,M,2.8,0000*6C
$GPGSA,A,3,31,21,25,27,16,29,,,,,,,2.1,1.2,1.8*34
$GPGSV,3,1,11,31,60,199,46,21,55,139,43,29,39,051,31,16,31,301,15*77
$GPGSV,3,2,11,27,16,247,15,25,15,105,31,23,09,305,,05,02,042,14*70
$GPGSV,3,3,11,09,,332,,13,,335,,33,41,190,39*42
$GPRMC,091610.000,A,4110.7033,N,00835.7116,W,0.25,218.05,270914,,,D*7A
GPSD,O=RMC 1411809370.00 0.005 41.178388 -8.595193          ?        ?        ? 218.0500    0.129          ?             ?        ?        ?        ?,R=1

--------
Systime: 1411809343.90291
$GPGGA,091611.000,4110.7031,N,00835.7116,W,2,06,1.2,134.6,M,51.3,M,1.8,0000*68
$GPGSA,A,3,31,21,25,27,16,29,,,,,,,2.1,1.2,1.8*34
$GPRMC,091611.000,A,4110.7031,N,00835.7116,W,0.43,208.40,270914,,,D*79
GPSD,O=RMC 1411809371.00 0.005 41.178385 -8.595193          ?        ?        ? 208.4000    0.221          ?             ?        ?        ?        ?,R=1

--------
Systime: 1411809344.9067
$GPGGA,091612.000,4110.7030,N,00835.7116,W,2,05,1.6,134.3,M,51.3,M,1.8,0000*68
$GPGSA,A,3,31,21,25,27,29,,,,,,,,2.4,1.6,1.8*32
$GPRMC,091612.000,A,4110.7030,N,00835.7116,W,0.25,232.89,270914,,,D*77
GPSD,O=RMC 1411809372.00 0.005 41.178383 -8.595193          ?        ?        ? 232.8900    0.129          ?             ?        ?        ?        ?,R=1

--------
Systime: 1411809345.90683
$GPGGA,091613.000,4110.7028,N,00835.7115,W,2,05,1.6,134.0,M,51.3,M,1.8,0000*60
$GPGSA,A,3,31,21,25,27,29,,,,,,,,2.4,1.6,1.8*32
$GPRMC,091613.000,A,4110.7028,N,00835.7115,W,0.19,211.94,270914,,,D*7E
GPSD,O=RMC 1411809373.00 0.005 41.178380 -8.595192          ?        ?        ? 211.9400    0.098          ?             ?        ?        ?        ?,R=1

--------
Systime: 1411809346.89868
$GPGGA,091614.000,4110.7027,N,00835.7115,W,2,05,1.6,133.6,M,51.3,M,2.8,0000*6A
$GPGSA,A,3,31,21,25,27,29,,,,,,,,2.4,1.6,1.8*32
$GPRMC,091614.000,A,4110.7027,N,00835.7115,W,0.18,194.08,270914,,,D*7C
GPSD,O=RMC 1411809374.00 0.005 41.178378 -8.595192          ?        ?        ? 194.0800    0.093          ?             ?        ?        ?        ?,R=1

--------
Systime: 1411809348.31552
$GPGGA,091615.000,4110.7025,N,00835.7115,W,2,05,1.6,133.1,M,51.3,M,1.8,0000*6D
$GPGSA,A,3,31,21,25,27,29,,,,,,,,2.4,1.6,1.8*32
$GPGSV,3,1,11,31,60,199,45,21,55,139,43,29,39,051,30,16,31,301,*71
$GPGSV,3,2,11,27,16,247,16,25,15,105,30,23,09,305,,05,02,042,14*72
$GPGSV,3,3,11,09,,332,,13,,335,,33,41,190,39*42
$GPRMC,091615.000,A,4110.7025,N,00835.7115,W,0.16,207.34,270914,,,D*77
GPSD,O=RMC 1411809375.00 0.005 41.178375 -8.595192          ?        ?        ? 207.3400    0.082          ?             ?        ?        ?        ?,R=1

--------
Systime: 1411809348.91067
$GPGGA,091616.000,4110.7023,N,00835.7114,W,2,05,1.6,132.6,M,51.3,M,1.8,0000*6F
$GPGSA,A,3,31,21,25,27,29,,,,,,,,2.4,1.6,1.8*32
$GPRMC,091616.000,A,4110.7023,N,00835.7114,W,0.20,191.33,270914,,,D*7D
GPSD,O=RMC 1411809376.00 0.005 41.178372 -8.595190          ?        ?        ? 191.3300    0.103          ?             ?        ?        ?        ?,R=1

--------
Systime: 1411809349.9077
$GPGGA,091617.000,4110.7022,N,00835.7115,W,2,05,1.6,131.7,M,51.3,M,1.8,0000*6C
$GPGSA,A,3,31,21,25,27,29,,,,,,,,2.4,1.6,1.8*32
$GPRMC,091617.000,A,4110.7022,N,00835.7115,W,0.28,274.40,270914,,,D*78
GPSD,O=RMC 1411809377.00 0.005 41.178370 -8.595192          ?        ?        ? 274.4000    0.144          ?             ?        ?        ?        ?,R=1

--------
Systime: 1411809350.90576
$GPGGA,091618.000,4110.7020,N,00835.7116,W,2,05,1.6,130.6,M,51.3,M,2.8,0000*61
$GPGSA,A,3,31,21,25,27,29,,,,,,,,2.4,1.6,1.8*32
$GPRMC,091618.000,A,4110.7020,N,00835.7116,W,0.31,273.57,270914,,,D*7F
GPSD,O=RMC 1411809378.00 0.005 41.178367 -8.595193          ?        ?        ? 273.5700    0.159          ?             ?        ?        ?        ?,R=1

--------
Systime: 1411809351.89982
$GPGGA,091619.000,4110.7018,N,00835.7117,W,2,05,1.6,129.8,M,51.3,M,1.8,0000*6F
$GPGSA,A,3,31,21,25,27,29,,,,,,,,2.4,1.6,1.8*32
$GPRMC,091619.000,A,4110.7018,N,00835.7117,W,0.24,264.85,270914,,,D*79
GPSD,O=RMC 1411809379.00 0.005 41.178363 -8.595195          ?        ?        ? 264.8500    0.123          ?             ?        ?        ?        ?,R=1

--------
Systime: 1411809353.3176
$GPGGA,091620.000,4110.7017,N,00835.7118,W,2,05,1.6,129.0,M,51.3,M,1.8,0000*6D
$GPGSA,A,3,31,21,25,27,29,,,,,,,,2.4,1.6,1.8*32
$GPGSV,3,1,11,31,60,199,46,21,55,139,43,29,39,051,30,16,31,301,*72
$GPGSV,3,2,11,27,16,247,18,25,15,105,30,23,09,305,,05,02,042,14*7C
$GPGSV,3,3,11,09,,332,,13,,335,,33,41,190,40*4C
$GPRMC,091620.000,A,4110.7017,N,00835.7118,W,0.18,229.06,270914,,,D*7E
GPSD,O=RMC 1411809380.00 0.005 41.178362 -8.595197          ?        ?        ? 229.0600    0.093          ?             ?        ?        ?        ?,R=1

--------
Systime: 1411809353.90478
$GPGGA,091621.000,4110.7015,N,00835.7118,W,2,05,1.6,128.5,M,51.3,M,1.8,0000*6A
$GPGSA,A,3,31,21,25,27,29,,,,,,,,2.4,1.6,1.8*32
$GPRMC,091621.000,A,4110.7015,N,00835.7118,W,0.17,208.55,270914,,,D*77
GPSD,O=RMC 1411809381.00 0.005 41.178358 -8.595197          ?        ?        ? 208.5500    0.087          ?             ?        ?        ?        ?,R=1

--------
Systime: 1411809354.90643
$GPGGA,091622.000,4110.7014,N,00835.7118,W,2,05,1.6,127.9,M,51.3,M,2.8,0000*68
$GPGSA,A,3,31,21,25,27,29,,,,,,,,2.4,1.6,1.8*32
$GPRMC,091622.000,A,4110.7014,N,00835.7118,W,0.16,201.74,270914,,,D*7E
GPSD,O=RMC 1411809382.00 0.005 41.178357 -8.595197          ?        ?        ? 201.7400    0.082          ?             ?        ?        ?        ?,R=1

--------
Systime: 1411809355.90673
$GPGGA,091623.000,4110.7013,N,00835.7117,W,2,05,1.6,127.7,M,51.3,M,1.8,0000*6C
$GPGSA,A,3,31,21,25,27,29,,,,,,,,2.4,1.6,1.8*32
$GPRMC,091623.000,A,4110.7013,N,00835.7117,W,0.15,183.43,270914,,,D*79
GPSD,O=RMC 1411809383.00 0.005 41.178355 -8.595195          ?        ?        ? 183.4300    0.077          ?             ?        ?        ?        ?,R=1

--------
Systime: 1411809356.91253
$GPGGA,091624.000,4110.7012,N,00835.7117,W,2,05,1.6,127.3,M,51.3,M,1.8,0000*6E
$GPGSA,A,3,31,21,25,27,29,,,,,,,,2.4,1.6,1.8*32
$GPRMC,091624.000,A,4110.7012,N,00835.7117,W,0.12,246.40,270914,,,D*71
GPSD,O=RMC 1411809384.00 0.005 41.178353 -8.595195          ?        ?        ? 246.4000    0.062          ?             ?        ?        ?        ?,R=1

--------
Systime: 1411809358.33888
$GPGGA,091625.000,4110.7012,N,00835.7117,W,2,05,1.6,127.1,M,51.3,M,1.8,0000*6D
$GPGSA,A,3,31,21,25,27,29,,,,,,,,2.4,1.6,1.8*32
$GPGSV,3,1,11,31,60,199,46,21,55,139,43,29,39,051,29,16,31,301,*7A
$GPGSV,3,2,11,27,16,247,21,25,15,105,30,23,09,305,,05,02,042,14*76
$GPGSV,3,3,11,09,,332,,13,,335,,33,41,190,39*42
$GPRMC,091625.000,A,4110.7012,N,00835.7117,W,0.11,188.01,270914,,,D*77
GPSD,O=RMC 1411809385.00 0.005 41.178353 -8.595195          ?        ?        ? 188.0100    0.057          ?             ?        ?        ?        ?,R=1

--------
Systime: 1411809358.90992
$GPGGA,091626.000,4110.7011,N,00835.7116,W,2,05,1.6,126.8,M,51.3,M,2.8,0000*67
$GPGSA,A,3,31,21,25,27,29,,,,,,,,2.4,1.6,1.8*32
$GPRMC,091626.000,A,4110.7011,N,00835.7116,W,0.13,217.84,270914,,,D*7C
GPSD,O=RMC 1411809386.00 0.005 41.178352 -8.595193          ?        ?        ? 217.8400    0.067          ?             ?        ?        ?        ?,R=1

--------
Systime: 1411809359.90654
$GPGGA,091627.000,4110.7016,N,00835.7115,W,2,05,1.6,127.3,M,51.3,M,1.8,0000*6B
$GPGSA,A,3,31,21,25,27,29,,,,,,,,2.4,1.6,1.8*32
$GPRMC,091627.000,A,4110.7016,N,00835.7115,W,0.29,7.05,270914,,,D*7A
GPSD,O=RMC 1411809387.00 0.005 41.178360 -8.595192          ?        ?        ?   7.0500    0.149          ?             ?        ?        ?        ?,R=1

--------
Systime: 1411809360.9095
$GPGGA,091628.000,4110.7022,N,00835.7115,W,2,05,1.6,127.7,M,51.3,M,1.8,0000*67
$GPGSA,A,3,31,21,25,27,29,,,,,,,,2.4,1.6,1.8*32
$GPRMC,091628.000,A,4110.7022,N,00835.7115,W,0.43,333.10,270914,,,D*7E
GPSD,O=RMC 1411809388.00 0.005 41.178370 -8.595192          ?        ?        ? 333.1000    0.221          ?             ?        ?        ?        ?,R=1

--------
Systime: 1411809361.91155
$GPGGA,091629.000,4110.7028,N,00835.7113,W,2,05,1.6,128.3,M,51.3,M,1.8,0000*61
$GPGSA,A,3,31,21,25,27,29,,,,,,,,2.4,1.6,1.8*32
$GPRMC,091629.000,A,4110.7028,N,00835.7113,W,0.40,182.85,270914,,,D*74
GPSD,O=RMC 1411809389.00 0.005 41.178380 -8.595188          ?        ?        ? 182.8500    0.206          ?             ?        ?        ?        ?,R=1

--------
Systime: 1411809363.36141
$GPGGA,091630.000,4110.7034,N,00835.7111,W,2,06,1.2,129.1,M,51.3,M,1.8,0000*62
$GPGSA,A,3,31,21,25,27,16,29,,,,,,,2.1,1.2,1.8*34
$GPGSV,3,1,11,31,60,199,46,21,55,139,44,29,39,051,23,16,31,301,18*7E
$GPGSV,3,2,11,27,16,247,23,25,15,105,30,23,09,305,15,05,02,042,15*71
$GPGSV,3,3,11,09,,332,,13,,335,,33,41,190,39*42
$GPRMC,091630.000,A,4110.7034,N,00835.7111,W,0.54,342.08,270914,,,D*7D
GPSD,O=RMC 1411809390.00 0.005 41.178390 -8.595185          ?        ?        ? 342.0800    0.278          ?             ?        ?        ?        ?,R=1

--------
Systime: 1411809363.90956
$GPGGA,091631.000,4110.7042,N,00835.7108,W,2,06,1.2,130.1,M,51.3,M,1.8,0000*62
$GPGSA,A,3,31,21,25,27,16,29,,,,,,,2.1,1.2,1.8*34
$GPRMC,091631.000,A,4110.7042,N,00835.7108,W,1.11,344.47,270914,,,D*78
GPSD,O=RMC 1411809391.00 0.005 41.178403 -8.595180          ?        ?        ? 344.4700    0.571          ?             ?        ?        ?        ?,R=1

--------
Systime: 1411809364.91017
$GPGGA,091632.000,4110.7052,N,00835.7105,W,2,06,1.2,131.3,M,51.3,M,1.8,0000*6E
$GPGSA,A,3,31,21,25,27,16,29,,,,,,,2.1,1.2,1.8*34
$GPRMC,091632.000,A,4110.7052,N,00835.7105,W,1.14,345.75,270914,,,D*72
GPSD,O=RMC 1411809392.00 0.005 41.178420 -8.595175          ?        ?        ? 345.7500    0.586          ?             ?        ?        ?        ?,R=1

--------
Systime: 1411809365.91554
$GPGGA,091633.000,4110.7058,N,00835.7100,W,2,06,1.2,132.4,M,51.3,M,1.8,0000*64
$GPGSA,A,3,31,21,25,27,16,29,,,,,,,2.1,1.2,1.8*34
$GPRMC,091633.000,A,4110.7058,N,00835.7100,W,0.66,352.77,270914,,,D*7C
GPSD,O=RMC 1411809393.00 0.005 41.178430 -8.595167          ?        ?        ? 352.7700    0.340          ?             ?        ?        ?        ?,R=1

--------
Systime: 1411809366.90751
$GPGGA,091634.000,4110.7061,N,00835.7095,W,2,06,1.2,133.4,M,51.3,M,2.8,0000*66
$GPGSA,A,3,31,21,25,27,16,29,,,,,,,2.1,1.2,1.8*34
$GPRMC,091634.000,A,4110.7061,N,00835.7095,W,0.62,7.81,270914,,,D*72
GPSD,O=RMC 1411809394.00 0.005 41.178435 -8.595158          ?        ?        ?   7.8100    0.319          ?             ?        ?        ?        ?,R=1

--------
Systime: 1411809368.346
$GPGGA,091635.000,4110.7061,N,00835.7090,W,2,06,1.2,134.2,M,51.3,M,1.8,0000*60
$GPGSA,A,3,31,21,25,27,16,29,,,,,,,2.1,1.2,1.8*34
$GPGSV,3,1,11,31,60,199,46,21,55,139,44,29,39,051,22,16,31,301,20*74
$GPGSV,3,2,11,27,16,247,24,25,15,105,30,23,09,305,,05,02,042,14*73
$GPGSV,3,3,11,09,,332,,13,,335,,33,41,190,39*42
$GPRMC,091635.000,A,4110.7061,N,00835.7090,W,0.21,289.97,270914,,,D*72
GPSD,O=RMC 1411809395.00 0.005 41.178435 -8.595150          ?        ?        ? 289.9700    0.108          ?             ?        ?        ?        ?,R=1

--------
Systime: 1411809368.91483
$GPGGA,091636.000,4110.7061,N,00835.7086,W,2,06,1.2,134.9,M,51.3,M,1.8,0000*6F
$GPGSA,A,3,31,21,25,27,16,29,,,,,,,2.1,1.2,1.8*34
$GPRMC,091636.000,A,4110.7061,N,00835.7086,W,0.27,196.45,270914,,,D*72
GPSD,O=RMC 1411809396.00 0.005 41.178435 -8.595143          ?        ?        ? 196.4500    0.139          ?             ?        ?        ?        ?,R=1

--------
Systime: 1411809369.91162
$GPGGA,091637.000,4110.7061,N,00835.7081,W,2,06,1.2,135.5,M,51.3,M,1.8,0000*64
$GPGSA,A,3,31,21,25,27,16,29,,,,,,,2.1,1.2,1.8*34
$GPRMC,091637.000,A,4110.7061,N,00835.7081,W,0.11,166.77,270914,,,D*7F
GPSD,O=RMC 1411809397.00 0.005 41.178435 -8.595135          ?        ?        ? 166.7700    0.057          ?             ?        ?        ?        ?,R=1

--------
Systime: 1411809370.91058
$GPGGA,091638.000,4110.7061,N,00835.7077,W,2,06,1.2,135.9,M,51.3,M,1.8,0000*6E
$GPGSA,A,3,31,21,25,27,16,29,,,,,,,2.1,1.2,1.8*34
$GPRMC,091638.000,A,4110.7061,N,00835.7077,W,0.22,31.26,270914,,,D*4E
GPSD,O=RMC 1411809398.00 0.005 41.178435 -8.595128          ?        ?        ?  31.2600    0.113          ?             ?        ?        ?        ?,R=1

--------
Systime: 1411809371.90855
$GPGGA,091639.000,4110.7059,N,00835.7074,W,2,06,1.2,136.1,M,51.3,M,1.8,0000*6C
$GPGSA,A,3,31,21,25,27,16,29,,,,,,,2.1,1.2,1.8*34
$GPRMC,091639.000,A,4110.7059,N,00835.7074,W,0.09,63.37,270914,,,D*49
GPSD,O=RMC 1411809399.00 0.005 41.178432 -8.595123          ?        ?        ?  63.3700    0.046          ?             ?        ?        ?        ?,R=1

--------
Systime: 1411809373.3516
$GPGGA,091640.000,4110.7056,N,00835.7070,W,2,06,1.2,136.1,M,51.3,M,1.8,0000*69
$GPGSA,A,3,31,21,25,27,16,29,,,,,,,2.1,1.2,1.8*34
$GPGSV,3,1,11,31,60,199,46,21,55,139,44,29,39,051,17,16,31,301,21*73
$GPGSV,3,2,11,27,16,247,24,25,15,105,30,23,09,305,,05,02,042,13*74
$GPGSV,3,3,11,09,,332,,13,,335,,33,41,190,39*42
$GPRMC,091640.000,A,4110.7056,N,00835.7070,W,0.41,358.79,270914,,,D*71
GPSD,O=RMC 1411809400.00 0.005 41.178427 -8.595117          ?        ?        ? 358.7900    0.211          ?             ?        ?        ?        ?,R=1

--------
Systime: 1411809373.91685
$GPGGA,091641.000,4110.7053,N,00835.7067,W,2,06,1.2,135.9,M,51.3,M,1.8,0000*60
$GPGSA,A,3,31,21,25,27,16,29,,,,,,,2.1,1.2,1.8*34
$GPRMC,091641.000,A,4110.7053,N,00835.7067,W,0.06,206.34,270914,,,D*73
GPSD,O=RMC 1411809401.00 0.005 41.178422 -8.595112          ?        ?        ? 206.3400    0.031          ?             ?        ?        ?        ?,R=1

--------
Systime: 1411809374.91884
$GPGGA,091642.000,4110.7048,N,00835.7065,W,2,06,1.2,135.3,M,51.3,M,2.8,0000*62
$GPGSA,A,3,31,21,25,27,16,29,,,,,,,2.1,1.2,1.8*34
$GPRMC,091642.000,A,4110.7048,N,00835.7065,W,0.27,314.08,270914,,,D*76
GPSD,O=RMC 1411809402.00 0.005 41.178413 -8.595108          ?        ?        ? 314.0800    0.139          ?             ?        ?        ?        ?,R=1

--------
Systime: 1411809375.91095
$GPGGA,091643.000,4110.7044,N,00835.7063,W,2,06,1.2,134.9,M,51.3,M,1.8,0000*61
$GPGSA,A,3,31,21,25,27,16,29,,,,,,,2.1,1.2,1.8*34
$GPRMC,091643.000,A,4110.7044,N,00835.7063,W,0.08,195.17,270914,,,D*75
GPSD,O=RMC 1411809403.00 0.005 41.178407 -8.595105          ?        ?        ? 195.1700    0.041          ?             ?        ?        ?        ?,R=1

--------
Systime: 1411809376.91183
$GPGGA,091644.000,4110.7044,N,00835.7063,W,2,06,1.2,134.6,M,51.3,M,1.8,0000*69
$GPGSA,A,3,31,21,25,27,16,29,,,,,,,2.1,1.2,1.8*34
$GPRMC,091644.000,A,4110.7044,N,00835.7063,W,0.32,348.90,270914,,,D*76
GPSD,O=RMC 1411809404.00 0.005 41.178407 -8.595105          ?        ?        ? 348.9000    0.165          ?             ?        ?        ?        ?,R=1

--------
Systime: 1411809378.35052
$GPGGA,091645.000,4110.7041,N,00835.7062,W,2,06,1.2,134.0,M,51.3,M,1.8,0000*6A
$GPGSA,A,3,31,21,25,27,16,29,,,,,,,2.1,1.2,1.8*34
$GPGSV,3,1,11,31,60,199,46,21,55,139,44,29,39,051,17,16,31,301,22*70
$GPGSV,3,2,11,27,16,247,24,25,15,105,29,23,09,305,,05,02,042,12*7D
$GPGSV,3,3,11,09,,332,,13,,335,,33,41,190,40*4C
$GPRMC,091645.000,A,4110.7041,N,00835.7062,W,0.32,352.02,270914,,,D*73
GPSD,O=RMC 1411809405.00 0.005 41.178402 -8.595103          ?        ?        ? 352.0200    0.165          ?             ?        ?        ?        ?,R=1

--------
Systime: 1411809378.91165
$GPGGA,091646.000,4110.7041,N,00835.7060,W,2,06,1.2,133.5,M,51.3,M,2.8,0000*6A
$GPGSA,A,3,31,21,25,27,16,29,,,,,,,2.1,1.2,1.8*34
$GPRMC,091646.000,A,4110.7041,N,00835.7060,W,0.52,358.16,270914,,,D*7B
GPSD,O=RMC 1411809406.00 0.005 41.178402 -8.595100          ?        ?        ? 358.1600    0.268          ?             ?        ?        ?        ?,R=1

--------
Systime: 1411809379.91654
$GPGGA,091647.000,4110.7041,N,00835.7059,W,2,06,1.2,133.3,M,51.3,M,1.8,0000*64
$GPGSA,A,3,31,21,25,27,16,29,,,,,,,2.1,1.2,1.8*34
$GPRMC,091647.000,A,4110.7041,N,00835.7059,W,0.10,56.17,270914,,,D*4A
GPSD,O=RMC 1411809407.00 0.005 41.178402 -8.595098          ?        ?        ?  56.1700    0.051          ?             ?        ?        ?        ?,R=1

--------
Systime: 1411809380.90986
$GPGGA,091648.000,4110.7041,N,00835.7058,W,2,06,1.2,132.9,M,51.3,M,1.8,0000*61
$GPGSA,A,3,31,21,25,27,16,29,,,,,,,2.1,1.2,1.8*34
$GPRMC,091648.000,A,4110.7041,N,00835.7058,W,0.62,347.39,270914,,,D*7E
GPSD,O=RMC 1411809408.00 0.005 41.178402 -8.595097          ?        ?        ? 347.3900    0.319          ?             ?        ?        ?        ?,R=1

--------
Systime: 1411809381.91186
$GPGGA,091649.000,4110.7041,N,00835.7058,W,2,06,1.2,132.2,M,51.3,M,1.8,0000*6B
$GPGSA,A,3,31,21,25,27,16,29,,,,,,,2.1,1.2,1.8*34
$GPRMC,091649.000,A,4110.7041,N,00835.7058,W,0.26,237.14,270914,,,D*76
GPSD,O=RMC 1411809409.00 0.005 41.178402 -8.595097          ?        ?        ? 237.1400    0.134          ?             ?        ?        ?        ?,R=1

--------
Systime: 1411809383.34953
$GPGGA,091650.000,4110.7038,N,00835.7059,W,2,06,1.2,131.3,M,51.3,M,2.8,0000*6D
$GPGSA,A,3,31,21,25,27,16,29,,,,,,,2.1,1.2,1.8*34
$GPGSV,3,1,11,31,60,199,46,21,55,139,44,29,39,051,18,16,31,301,22*7F
$GPGSV,3,2,11,27,16,247,22,25,15,105,29,23,09,305,,05,02,042,13*7A
$GPGSV,3,3,11,09,,332,,13,,335,,33,41,190,40*4C
$GPRMC,091650.000,A,4110.7038,N,00835.7059,W,0.40,226.81,270914,,,D*7D
GPSD,O=RMC 1411809410.00 0.005 41.178397 -8.595098          ?        ?        ? 226.8100    0.206          ?             ?        ?        ?        ?,R=1

--------
Systime: 1411809383.90854
$GPGGA,091651.000,4110.7035,N,00835.7061,W,2,06,1.2,130.2,M,51.3,M,1.8,0000*69
$GPGSA,A,3,31,21,25,27,16,29,,,,,,,2.1,1.2,1.8*34
$GPRMC,091651.000,A,4110.7035,N,00835.7061,W,0.34,229.70,270914,,,D*78
GPSD,O=RMC 1411809411.00 0.005 41.178392 -8.595102          ?        ?        ? 229.7000    0.175          ?             ?        ?        ?        ?,R=1

--------
Systime: 1411809384.91754
$GPGGA,091652.000,4110.7030,N,00835.7061,W,2,06,1.2,129.2,M,51.3,M,1.8,0000*67
$GPGSA,A,3,31,21,25,27,16,29,,,,,,,2.1,1.2,1.8*34
$GPRMC,091652.000,A,4110.7030,N,00835.7061,W,0.46,188.13,270914,,,D*76
GPSD,O=RMC 1411809412.00 0.005 41.178383 -8.595102          ?        ?        ? 188.1300    0.237          ?             ?        ?        ?        ?,R=1

--------
Systime: 1411809385.9168
$GPGGA,091653.000,4110.7026,N,00835.7062,W,2,06,1.2,128.0,M,51.3,M,1.8,0000*61
$GPGSA,A,3,31,21,25,27,16,29,,,,,,,2.1,1.2,1.8*34
$GPRMC,091653.000,A,4110.7026,N,00835.7062,W,0.22,227.79,270914,,,D*7B
GPSD,O=RMC 1411809413.00 0.005 41.178377 -8.595103          ?        ?        ? 227.7900    0.113          ?             ?        ?        ?        ?,R=1

--------
Systime: 1411809386.9158
$GPGGA,091654.000,4110.7023,N,00835.7063,W,2,06,1.2,127.1,M,51.3,M,2.8,0000*6F
$GPGSA,A,3,31,21,25,27,16,29,,,,,,,2.1,1.2,1.8*34
$GPRMC,091654.000,A,4110.7023,N,00835.7063,W,0.16,248.11,270914,,,D*78
GPSD,O=RMC 1411809414.00 0.005 41.178372 -8.595105          ?        ?        ? 248.1100    0.082          ?             ?        ?        ?        ?,R=1

--------
Systime: 1411809388.34896
$GPGGA,091655.000,4110.7020,N,00835.7064,W,2,06,1.2,126.3,M,51.3,M,1.8,0000*6A
$GPGSA,A,3,31,21,25,27,16,29,,,,,,,2.1,1.2,1.8*34
$GPGSV,3,1,11,31,60,199,46,21,55,139,44,29,39,051,20,16,31,301,23*75
$GPGSV,3,2,11,27,16,247,22,25,15,105,29,23,09,305,,05,02,042,14*7D
$GPGSV,3,3,11,09,,332,,13,,335,,33,41,190,39*42
$GPRMC,091655.000,A,4110.7020,N,00835.7064,W,0.11,192.91,270914,,,D*76
GPSD,O=RMC 1411809415.00 0.005 41.178367 -8.595107          ?        ?        ? 192.9100    0.057          ?             ?        ?        ?        ?,R=1

--------
Systime: 1411809388.91475
$GPGGA,091656.000,4110.7016,N,00835.7063,W,2,06,1.2,125.8,M,51.3,M,1.8,0000*63
$GPGSA,A,3,31,21,25,27,16,29,,,,,,,2.1,1.2,1.8*34
$GPRMC,091656.000,A,4110.7016,N,00835.7063,W,0.12,150.89,270914,,,D*73
GPSD,O=RMC 1411809416.00 0.005 41.178360 -8.595105          ?        ?        ? 150.8900    0.062          ?             ?        ?        ?        ?,R=1

--------
Systime: 1411809389.91772
$GPGGA,091657.000,4110.7010,N,00835.7064,W,2,06,1.2,124.8,M,51.3,M,1.8,0000*62
$GPGSA,A,3,31,21,25,27,16,29,,,,,,,2.1,1.2,1.8*34
$GPRMC,091657.000,A,4110.7010,N,00835.7064,W,0.15,202.37,270914,,,D*75
GPSD,O=RMC 1411809417.00 0.005 41.178350 -8.595107          ?        ?        ? 202.3700    0.077          ?             ?        ?        ?        ?,R=1

--------
Systime: 1411809390.91393
$GPGGA,091658.000,4110.7006,N,00835.7065,W,2,06,1.2,124.2,M,51.3,M,2.8,0000*62
$GPGSA,A,3,31,21,25,27,16,29,,,,,,,2.1,1.2,1.8*34
$GPRMC,091658.000,A,4110.7006,N,00835.7065,W,0.14,239.09,270914,,,D*78
GPSD,O=RMC 1411809418.00 0.005 41.178343 -8.595108          ?        ?        ? 239.0900    0.072          ?             ?        ?        ?        ?,R=1

--------
Systime: 1411809391.91072
$GPGGA,091659.000,4110.7000,N,00835.7066,W,2,06,1.2,123.2,M,51.3,M,1.8,0000*62
$GPGSA,A,3,31,21,25,27,16,29,,,,,,,2.1,1.2,1.8*34
$GPRMC,091659.000,A,4110.7000,N,00835.7066,W,0.28,183.42,270914,,,D*7E
GPSD,O=RMC 1411809419.00 0.005 41.178333 -8.595110          ?        ?        ? 183.4200    0.144          ?             ?        ?        ?        ?,R=1

--------
Systime: 1411809393.35109
$GPGGA,091700.000,4110.6997,N,00835.7067,W,2,06,1.2,122.8,M,51.3,M,1.8,0000*63
$GPGSA,A,3,31,21,25,27,16,29,,,,,,,2.1,1.2,1.8*34
$GPGSV,3,1,11,31,60,199,46,21,55,139,44,29,39,051,25,16,31,301,24*77
$GPGSV,3,2,11,27,16,247,22,25,15,105,29,23,09,305,,05,02,042,13*7A
$GPGSV,3,3,11,09,,332,,13,,335,,33,41,190,39*42
$GPRMC,091700.000,A,4110.6997,N,00835.7067,W,0.04,286.04,270914,,,D*7E
GPSD,O=RMC 1411809420.00 0.005 41.178328 -8.595112          ?        ?        ? 286.0400    0.021          ?             ?        ?        ?        ?,R=1

--------
Systime: 1411809393.91858
$GPGGA,091701.000,4110.6993,N,00835.7067,W,2,06,1.2,122.6,M,51.3,M,1.8,0000*68
$GPGSA,A,3,31,21,25,27,16,29,,,,,,,2.1,1.2,1.8*34
$GPRMC,091701.000,A,4110.6993,N,00835.7067,W,0.47,167.56,270914,,,D*77
GPSD,O=RMC 1411809421.00 0.005 41.178322 -8.595112          ?        ?        ? 167.5600    0.242          ?             ?        ?        ?        ?,R=1

--------
Systime: 1411809394.912
$GPGGA,091702.000,4110.6990,N,00835.7068,W,2,06,1.2,121.9,M,51.3,M,2.8,0000*68
$GPGSA,A,3,31,21,25,27,16,29,,,,,,,2.1,1.2,1.8*34
$GPRMC,091702.000,A,4110.6990,N,00835.7068,W,0.60,185.26,270914,,,D*76
GPSD,O=RMC 1411809422.00 0.005 41.178317 -8.595113          ?        ?        ? 185.2600    0.309          ?             ?        ?        ?        ?,R=1

--------
Systime: 1411809395.91295
$GPGGA,091703.000,4110.6987,N,00835.7069,W,2,06,1.2,121.6,M,51.3,M,1.8,0000*62
$GPGSA,A,3,31,21,25,27,16,29,,,,,,,2.1,1.2,1.8*34
$GPRMC,091703.000,A,4110.6987,N,00835.7069,W,0.18,212.34,270914,,,D*71
GPSD,O=RMC 1411809423.00 0.005 41.178312 -8.595115          ?        ?        ? 212.3400    0.093          ?             ?        ?        ?        ?,R=1

--------
Systime: 1411809396.91662
$GPGGA,091704.000,4110.6983,N,00835.7070,W,2,06,1.2,120.8,M,51.3,M,1.8,0000*66
$GPGSA,A,3,31,21,25,27,16,29,,,,,,,2.1,1.2,1.8*34
$GPRMC,091704.000,A,4110.6983,N,00835.7070,W,0.30,216.03,270914,,,D*70
GPSD,O=RMC 1411809424.00 0.005 41.178305 -8.595117          ?        ?        ? 216.0300    0.154          ?             ?        ?        ?        ?,R=1

--------
Systime: 1411809398.35656
$GPGGA,091705.000,4110.6980,N,00835.7071,W,2,06,1.2,119.9,M,51.3,M,1.8,0000*6E
$GPGSA,A,3,31,21,25,27,16,29,,,,,,,2.1,1.2,1.8*34
$GPGSV,3,1,11,31,60,199,46,21,55,139,43,29,39,051,26,16,31,301,24*73
$GPGSV,3,2,11,27,16,247,22,25,15,105,28,23,09,305,,05,02,042,13*7B
$GPGSV,3,3,11,09,,332,,13,,335,,33,41,190,39*42
$GPRMC,091705.000,A,4110.6980,N,00835.7071,W,0.33,218.79,270914,,,D*73
GPSD,O=RMC 1411809425.00 0.005 41.178300 -8.595118          ?        ?        ? 218.7900    0.170          ?             ?        ?        ?        ?,R=1

--------
Systime: 1411809398.91709
$GPGGA,091706.000,4110.6977,N,00835.7072,W,2,06,1.2,119.4,M,51.3,M,2.8,0000*68
$GPGSA,A,3,31,21,25,27,16,29,,,,,,,2.1,1.2,1.8*34
$GPRMC,091706.000,A,4110.6977,N,00835.7072,W,0.28,206.68,270914,,,D*7E
GPSD,O=RMC 1411809426.00 0.005 41.178295 -8.595120          ?        ?        ? 206.6800    0.144          ?             ?        ?        ?        ?,R=1

--------
Systime: 1411809399.91684
$GPGGA,091707.000,4110.6975,N,00835.7072,W,2,06,1.2,119.1,M,51.3,M,1.8,0000*6D
$GPGSA,A,3,31,21,25,27,16,29,,,,,,,2.1,1.2,1.8*34
$GPRMC,091707.000,A,4110.6975,N,00835.7072,W,0.20,176.04,270914,,,D*7B
GPSD,O=RMC 1411809427.00 0.005 41.178292 -8.595120          ?        ?        ? 176.0400    0.103          ?             ?        ?        ?        ?,R=1

--------
Systime: 1411809400.91678
$GPGGA,091708.000,4110.6973,N,00835.7072,W,2,06,1.2,119.1,M,51.3,M,1.8,0000*64
$GPGSA,A,3,31,21,25,27,16,29,,,,,,,2.1,1.2,1.8*34
$GPRMC,091708.000,A,4110.6973,N,00835.7072,W,0.25,173.71,270914,,,D*70
GPSD,O=RMC 1411809428.00 0.005 41.178288 -8.595120          ?        ?        ? 173.7100    0.129          ?             ?        ?        ?        ?,R=1

--------
Systime: 1411809401.91493
$GPGGA,091709.000,4110.6970,N,00835.7072,W,2,06,1.2,118.7,M,51.3,M,1.8,0000*61
$GPGSA,A,3,31,21,25,27,16,29,,,,,,,2.1,1.2,1.8*34
$GPRMC,091709.000,A,4110.6970,N,00835.7072,W,0.22,188.42,270914,,,D*71
GPSD,O=RMC 1411809429.00 0.005 41.178283 -8.595120          ?        ?        ? 188.4200    0.113          ?             ?        ?        ?        ?,R=1

--------
Systime: 1411809403.3467
$GPGGA,091710.000,4110.6968,N,00835.7071,W,2,06,1.2,118.7,M,51.3,M,2.8,0000*60
$GPGSA,A,3,31,21,25,27,16,29,,,,,,,2.1,1.2,1.8*34
$GPGSV,3,1,11,31,60,199,46,21,55,139,43,29,39,051,26,16,31,301,25*72
$GPGSV,3,2,11,27,16,247,23,25,15,105,28,23,09,305,,05,02,042,13*7A
$GPGSV,3,3,11,09,,332,,13,,335,,33,41,190,39*42
$GPRMC,091710.000,A,4110.6968,N,00835.7071,W,0.21,179.14,270914,,,D*7D
GPSD,O=RMC 1411809430.00 0.005 41.178280 -8.595118          ?        ?        ? 179.1400    0.108          ?             ?        ?        ?        ?,R=1

--------
Systime: 1411809403.90973
$GPGGA,091711.000,4110.6965,N,00835.7071,W,2,06,1.2,118.1,M,51.3,M,1.8,0000*69
$GPGSA,A,3,31,21,25,27,16,29,,,,,,,2.1,1.2,1.8*34
$GPRMC,091711.000,A,4110.6965,N,00835.7071,W,0.20,203.28,270914,,,D*71
GPSD,O=RMC 1411809431.00 0.005 41.178275 -8.595118          ?        ?        ? 203.2800    0.103          ?             ?        ?        ?        ?,R=1

--------
Systime: 1411809404.91449
$GPGGA,091712.000,4110.6963,N,00835.7071,W,2,06,1.2,117.9,M,51.3,M,1.8,0000*6B
$GPGSA,A,3,31,21,25,27,16,29,,,,,,,2.1,1.2,1.8*34
$GPRMC,091712.000,A,4110.6963,N,00835.7071,W,0.20,194.17,270914,,,D*75
GPSD,O=RMC 1411809432.00 0.005 41.178272 -8.595118          ?        ?        ? 194.1700    0.103          ?             ?        ?        ?        ?,R=1

--------
Systime: 1411809405.92269
$GPGGA,091713.000,4110.6962,N,00835.7070,W,2,06,1.2,117.8,M,51.3,M,1.8,0000*6B
$GPGSA,A,3,31,21,25,27,16,29,,,,,,,2.1,1.2,1.8*34
$GPRMC,091713.000,A,4110.6962,N,00835.7070,W,0.20,204.86,270914,,,D*76
GPSD,O=RMC 1411809433.00 0.005 41.178270 -8.595117          ?        ?        ? 204.8600    0.103          ?             ?        ?        ?        ?,R=1

--------
Systime: 1411809406.92054
$GPGGA,091714.000,4110.6960,N,00835.7070,W,2,06,1.2,117.7,M,51.3,M,2.8,0000*62
$GPGSA,A,3,31,21,25,27,16,29,,,,,,,2.1,1.2,1.8*34
$GPRMC,091714.000,A,4110.6960,N,00835.7070,W,0.23,200.67,270914,,,D*7B
GPSD,O=RMC 1411809434.00 0.005 41.178267 -8.595117          ?        ?        ? 200.6700    0.118          ?             ?        ?        ?        ?,R=1

--------
Systime: 1411809408.35065
$GPGGA,091715.000,4110.6958,N,00835.7067,W,2,06,1.2,118.2,M,51.3,M,1.8,0000*67
$GPGSA,A,3,31,21,25,27,16,29,,,,,,,2.1,1.2,1.8*34
$GPGSV,3,1,11,31,60,199,46,21,55,139,43,29,39,051,27,16,31,301,24*72
$GPGSV,3,2,11,27,16,247,24,25,15,105,28,23,09,305,13,05,02,042,*7D
$GPGSV,3,3,11,09,,332,,13,,335,,33,41,190,39*42
$GPRMC,091715.000,A,4110.6958,N,00835.7067,W,0.20,164.31,270914,,,D*76
GPSD,O=RMC 1411809435.00 0.005 41.178263 -8.595112          ?        ?        ? 164.3100    0.103          ?             ?        ?        ?        ?,R=1

--------
Systime: 1411809408.92399
$GPGGA,091716.000,4110.6957,N,00835.7065,W,2,06,1.2,118.6,M,51.3,M,1.8,0000*6D
$GPGSA,A,3,31,21,25,27,16,29,,,,,,,2.1,1.2,1.8*34
$GPRMC,091716.000,A,4110.6957,N,00835.7065,W,0.35,168.86,270914,,,D*7C
GPSD,O=RMC 1411809436.00 0.005 41.178262 -8.595108          ?        ?        ? 168.8600    0.180          ?             ?        ?        ?        ?,R=1

--------
Systime: 1411809409.91258
$GPGGA,091717.000,4110.6960,N,00835.7066,W,2,06,1.2,119.2,M,51.3,M,1.8,0000*6E
$GPGSA,A,3,31,21,25,27,16,29,,,,,,,2.1,1.2,1.8*34
$GPRMC,091717.000,A,4110.6960,N,00835.7066,W,0.20,327.32,270914,,,D*78
GPSD,O=RMC 1411809437.00 0.005 41.178267 -8.595110          ?        ?        ? 327.3200    0.103          ?             ?        ?        ?        ?,R=1

--------
Systime: 1411809410.9135
$GPGGA,091718.000,4110.6961,N,00835.7066,W,2,06,1.2,119.7,M,51.3,M,1.8,0000*65
$GPGSA,A,3,31,21,25,27,16,29,,,,,,,2.1,1.2,1.8*34
$GPRMC,091718.000,A,4110.6961,N,00835.7066,W,0.12,325.28,270914,,,D*7E
GPSD,O=RMC 1411809438.00 0.005 41.178268 -8.595110          ?        ?        ? 325.2800    0.062          ?             ?        ?        ?        ?,R=1

--------
Systime: 1411809411.92155
$GPGGA,091719.000,4110.6960,N,00835.7064,W,2,06,1.2,120.0,M,51.3,M,1.8,0000*6A
$GPGSA,A,3,31,21,25,27,16,29,,,,,,,2.1,1.2,1.8*34
$GPRMC,091719.000,A,4110.6960,N,00835.7064,W,0.23,175.05,270914,,,D*76
GPSD,O=RMC 1411809439.00 0.005 41.178267 -8.595107          ?        ?        ? 175.0500    0.118          ?             ?        ?        ?        ?,R=1

--------
Systime: 1411809413.35952
$GPGGA,091720.000,4110.6960,N,00835.7063,W,2,06,1.2,120.5,M,51.3,M,1.8,0000*62
$GPGSA,A,3,31,21,25,27,16,29,,,,,,,2.1,1.2,1.8*34
$GPGSV,3,1,11,31,60,199,46,21,55,139,43,29,39,051,27,16,31,301,24*72
$GPGSV,3,2,11,27,16,247,25,25,15,105,27,23,09,305,13,05,02,042,*73
$GPGSV,3,3,11,09,,332,,13,,335,,33,41,190,39*42
$GPRMC,091720.000,A,4110.6960,N,00835.7063,W,0.24,177.66,270914,,,D*7B
GPSD,O=RMC 1411809440.00 0.005 41.178267 -8.595105          ?        ?        ? 177.6600    0.123          ?             ?        ?        ?        ?,R=1

--------
Systime: 1411809413.91963
$GPGGA,091721.000,4110.6959,N,00835.7061,W,2,06,1.2,120.9,M,51.3,M,1.8,0000*67
$GPGSA,A,3,31,21,25,27,16,29,,,,,,,2.1,1.2,1.8*34
$GPRMC,091721.000,A,4110.6959,N,00835.7061,W,0.15,182.82,270914,,,D*70
GPSD,O=RMC 1411809441.00 0.005 41.178265 -8.595102          ?        ?        ? 182.8200    0.077          ?             ?        ?        ?        ?,R=1

--------
Systime: 1411809414.92103
$GPGGA,091722.000,4110.6958,N,00835.7060,W,2,06,1.2,121.3,M,51.3,M,2.8,0000*6C
$GPGSA,A,3,31,21,25,27,16,29,,,,,,,2.1,1.2,1.8*34
$GPRMC,091722.000,A,4110.6958,N,00835.7060,W,0.33,172.37,270914,,,D*76
GPSD,O=RMC 1411809442.00 0.005 41.178263 -8.595100          ?        ?        ? 172.3700    0.170          ?             ?        ?        ?        ?,R=1

--------
Systime: 1411809415.9107
$GPGGA,091723.000,4110.6959,N,00835.7060,W,2,06,1.2,121.7,M,51.3,M,1.8,0000*6B
$GPGSA,A,3,31,21,25,27,16,29,,,,,,,2.1,1.2,1.8*34
$GPRMC,091723.000,A,4110.6959,N,00835.7060,W,0.06,224.66,270914,,,D*74
GPSD,O=RMC 1411809443.00 0.005 41.178265 -8.595100          ?        ?        ? 224.6600    0.031          ?             ?        ?        ?        ?,R=1

--------
Systime: 1411809416.91683
$GPGGA,091724.000,4110.6960,N,00835.7060,W,2,06,1.2,122.1,M,51.3,M,1.8,0000*63
$GPGSA,A,3,31,21,25,27,16,29,,,,,,,2.1,1.2,1.8*34
$GPRMC,091724.000,A,4110.6960,N,00835.7060,W,0.07,194.26,270914,,,D*74
GPSD,O=RMC 1411809444.00 0.005 41.178267 -8.595100          ?        ?        ? 194.2600    0.036          ?             ?        ?        ?        ?,R=1

--------
Systime: 1411809418.35149
$GPGGA,091725.000,4110.6961,N,00835.7060,W,2,06,1.2,122.4,M,51.3,M,1.8,0000*66
$GPGSA,A,3,31,21,25,27,16,29,,,,,,,2.1,1.2,1.8*34
$GPGSV,3,1,11,31,60,199,46,21,55,139,43,29,39,051,28,16,31,301,24*7D
$GPGSV,3,2,11,27,16,247,26,25,15,105,26,23,09,305,13,05,02,042,14*74
$GPGSV,3,3,11,09,,332,,13,,335,,33,41,190,39*42
$GPRMC,091725.000,A,4110.6961,N,00835.7060,W,0.26,332.25,270914,,,D*7A
GPSD,O=RMC 1411809445.00 0.005 41.178268 -8.595100          ?        ?        ? 332.2500    0.134          ?             ?        ?        ?        ?,R=1

--------
Systime: 1411809418.93171
$GPGGA,091726.000,4110.6961,N,00835.7059,W,2,06,1.2,123.0,M,51.3,M,1.8,0000*6A
$GPGSA,A,3,31,21,25,27,16,29,,,,,,,2.1,1.2,1.8*34
$GPRMC,091726.000,A,4110.6961,N,00835.7059,W,0.11,342.47,270914,,,D*74
GPSD,O=RMC 1411809446.00 0.005 41.178268 -8.595098          ?        ?        ? 342.4700    0.057          ?             ?        ?        ?        ?,R=1

--------
Systime: 1411809419.9276
$GPGGA,091727.000,4110.6962,N,00835.7060,W,2,06,1.2,123.4,M,51.3,M,1.8,0000*66
$GPGSA,A,3,31,21,25,27,16,29,,,,,,,2.1,1.2,1.8*34
$GPRMC,091727.000,A,4110.6962,N,00835.7060,W,0.29,188.58,270914,,,D*7D
GPSD,O=RMC 1411809447.00 0.005 41.178270 -8.595100          ?        ?        ? 188.5800    0.149          ?             ?        ?        ?        ?,R=1

--------
Systime: 1411809420.93169
$GPGGA,091728.000,4110.6962,N,00835.7060,W,2,06,1.2,123.5,M,51.3,M,1.8,0000*68
$GPGSA,A,3,31,21,25,27,16,29,,,,,,,2.1,1.2,1.8*34
$GPRMC,091728.000,A,4110.6962,N,00835.7060,W,0.12,158.81,270914,,,D*73
GPSD,O=RMC 1411809448.00 0.005 41.178270 -8.595100          ?        ?        ? 158.8100    0.062          ?             ?        ?        ?        ?,R=1

--------
Systime: 1411809421.93354
$GPGGA,091729.000,4110.6960,N,00835.7059,W,2,06,1.2,123.5,M,51.3,M,1.8,0000*61
$GPGSA,A,3,31,21,25,27,16,29,,,,,,,2.1,1.2,1.8*34
$GPRMC,091729.000,A,4110.6960,N,00835.7059,W,0.39,179.37,270914,,,D*7D
GPSD,O=RMC 1411809449.00 0.005 41.178267 -8.595098          ?        ?        ? 179.3700    0.201          ?             ?        ?        ?        ?,R=1

--------
Systime: 1411809423.34786
$GPGGA,091730.000,4110.6957,N,00835.7058,W,2,06,1.2,123.6,M,51.3,M,2.8,0000*6C
$GPGSA,A,3,31,21,25,27,16,29,,,,,,,2.1,1.2,1.8*34
$GPGSV,3,1,11,31,60,199,46,21,55,139,43,29,39,051,29,16,31,301,23*7B
$GPGSV,3,2,11,27,16,247,26,25,15,105,20,23,09,305,13,05,02,042,13*75
$GPGSV,3,3,11,09,,332,,13,,335,,33,41,190,39*42
$GPRMC,091730.000,A,4110.6957,N,00835.7058,W,0.46,171.67,270914,,,D*75
GPSD,O=RMC 1411809450.00 0.005 41.178262 -8.595097          ?        ?        ? 171.6700    0.237          ?             ?        ?        ?        ?,R=1

--------
Systime: 1411809423.93052
$GPGGA,091731.000,4110.6954,N,00835.7058,W,2,06,1.2,123.0,M,51.3,M,1.8,0000*6B
$GPGSA,A,3,31,21,25,27,16,29,,,,,,,2.1,1.2,1.8*34
$GPRMC,091731.000,A,4110.6954,N,00835.7058,W,0.28,164.46,270914,,,D*78
GPSD,O=RMC 1411809451.00 0.005 41.178257 -8.595097          ?        ?        ? 164.4600    0.144          ?             ?        ?        ?        ?,R=1

--------
Systime: 1411809424.94691
$GPGGA,091732.000,4110.6954,N,00835.7057,W,2,06,1.2,122.7,M,51.3,M,1.8,0000*61
$GPGSA,A,3,31,21,25,27,16,29,,,,,,,2.1,1.2,1.8*34
$GPRMC,091732.000,A,4110.6954,N,00835.7057,W,0.19,146.92,270914,,,D*7F
GPSD,O=RMC 1411809452.00 0.005 41.178257 -8.595095          ?        ?        ? 146.9200    0.098          ?             ?        ?        ?        ?,R=1

--------
Systime: 1411809425.93073
$GPGGA,091733.000,4110.6952,N,00835.7056,W,2,06,1.2,122.4,M,51.3,M,1.8,0000*64
$GPGSA,A,3,31,21,25,27,16,29,,,,,,,2.1,1.2,1.8*34
$GPRMC,091733.000,A,4110.6952,N,00835.7056,W,0.42,161.95,270914,,,D*75
GPSD,O=RMC 1411809453.00 0.005 41.178253 -8.595093          ?        ?        ? 161.9500    0.216          ?             ?        ?        ?        ?,R=1

--------
Systime: 1411809426.93169
$GPGGA,091734.000,4110.6952,N,00835.7056,W,2,06,1.2,122.6,M,51.3,M,2.8,0000*62
$GPGSA,A,3,31,21,25,27,16,29,,,,,,,2.1,1.2,1.8*34
$GPRMC,091734.000,A,4110.6952,N,00835.7056,W,0.20,204.81,270914,,,D*73
GPSD,O=RMC 1411809454.00 0.005 41.178253 -8.595093          ?        ?        ? 204.8100    0.103          ?             ?        ?        ?        ?,R=1

--------
Systime: 1411809428.90458
$GPGGA,091735.000,4110.6953,N,00835.7057,W,2,06,1.2,122.7,M,51.3,M,1.8,0000*61
$GPGSA,A,3,31,21,25,27,16,29,,,,,,,2.1,1.2,1.8*34
